[
  {
    "county": "NANDI",
    "constituency_name": "TINDERET",
    "office_location": "Senetwo Social Hall",
    "landmark": "Senetwo Primary School",
    "latitude": 0.20387,
    "longitude": 35.105,
    "accuracy_meters": 500,
    "confidence_score": 96,
    "office_type": "CONSTITUENCY_OFFICE",
    "verified": true
  },
  {
    "county": "KIRINYAGA",
    "constituency_name": "GICHUGU",
    "office_location": "All Saints Kianyaga ACK",
    "landmark": "Raimu Primary School",
    "latitude": -0.56622,
    "longitude": 37.41667,
    "accuracy_meters": 500,
    "confidence_score": null,
    "office_type": "CONSTITUENCY_OFFICE",
    "verified": true
  },
  {
    "county": "WEST POKOT",
    "constituency_name": "MARAKWET WEST",
    "office_location": "Kapsowar IEBC Office",
    "landmark": "IEBC Office",
    "latitude": 0.90048,
    "longitude": 35.52655,
    "accuracy_meters": 500,
    "confidence_score": null,
    "office_type": "CONSTITUENCY_OFFICE",
    "verified": true
  },
  {
    "county": "KIAMBU",
    "constituency_name": null,
    "office_location": "IEBC GITHUNGURI ",
    "landmark": "Near Kenyatta Road",
    "latitude": -1.0050736,
    "longitude": 36.802106,
    "accuracy_meters": null,
    "confidence_score": null,
    "office_type": "CONSTITUENCY_OFFICE",
    "verified": true
  },
  {
    "county": "TANA RIVER",
    "constituency_name": "BURA",
    "office_location": "Bura Town",
    "landmark": "National Government Offices",
    "latitude": -3.49358,
    "longitude": 38.30869,
    "accuracy_meters": 500,
    "confidence_score": null,
    "office_type": "CONSTITUENCY_OFFICE",
    "verified": true
  },
  {
    "county": "LAIKIPIA",
    "constituency_name": null,
    "office_location": "IEBC Office Nyahururu Town",
    "landmark": "Near Nyahururu Law Courts (50 m)",
    "latitude": 0.0395125,
    "longitude": 36.3644388,
    "accuracy_meters": null,
    "confidence_score": null,
    "office_type": "CONSTITUENCY_OFFICE",
    "verified": true
  },
  {
    "county": "NAIROBI",
    "constituency_name": "RUARAKA",
    "office_location": "Matigari General Merchants",
    "landmark": "Lexx Place Hotel",
    "latitude": -1.2367,
    "longitude": 36.8766,
    "accuracy_meters": 500,
    "confidence_score": 57,
    "office_type": "CONSTITUENCY_OFFICE",
    "verified": true
  },
  {
    "county": "NAKURU",
    "constituency_name": "RONGAI",
    "office_location": "IEBC Kampi ya moto behind DC office.",
    "landmark": "Kampi Ya Moto Trading Centre",
    "latitude": -0.1667,
    "longitude": 35.8667,
    "accuracy_meters": 500,
    "confidence_score": 82,
    "office_type": "CONSTITUENCY_OFFICE",
    "verified": true
  },
  {
    "county": "WAJIR",
    "constituency_name": "WAJIR NORTH",
    "office_location": "Bute",
    "landmark": "Police Station",
    "latitude": 3.36506615,
    "longitude": 39.4239111,
    "accuracy_meters": 500,
    "confidence_score": 29,
    "office_type": "CONSTITUENCY_OFFICE",
    "verified": true
  },
  {
    "county": "THARAKA-NITHI",
    "constituency_name": "MAARA",
    "office_location": "DCC Compound, Kienganguru",
    "landmark": "DCC Compound",
    "latitude": -0.235587835423774,
    "longitude": 37.6319914270268,
    "accuracy_meters": 500,
    "confidence_score": null,
    "office_type": "CONSTITUENCY_OFFICE",
    "verified": true
  },
  {
    "county": "NAIROBI",
    "constituency_name": null,
    "office_location": "Marsabit Plaza IEBC Office",
    "landmark": "Along Ngong Rd",
    "latitude": -1.299538,
    "longitude": 36.772591,
    "accuracy_meters": null,
    "confidence_score": null,
    "office_type": "CONSTITUENCY_OFFICE",
    "verified": true
  },
  {
    "county": "MAKUENI",
    "constituency_name": "KIBWEZI EAST",
    "office_location": "Kambu Lutheran Church",
    "landmark": "Sub County Ministry of Interior",
    "latitude": -1.81894,
    "longitude": 37.43472,
    "accuracy_meters": 500,
    "confidence_score": 34,
    "office_type": "CONSTITUENCY_OFFICE",
    "verified": true
  },
  {
    "county": "NAIROBI",
    "constituency_name": "EMBAKASI NORTH",
    "office_location": "Near DCC Office",
    "landmark": "DCC Office",
    "latitude": -1.2611,
    "longitude": 36.9087,
    "accuracy_meters": 500,
    "confidence_score": 42,
    "office_type": "CONSTITUENCY_OFFICE",
    "verified": true
  },
  {
    "county": "BOMET",
    "constituency_name": "SOTIK",
    "office_location": "Ministry of Agriculture",
    "landmark": "Opposite CDF Office",
    "latitude": -0.6932394,
    "longitude": 35.1091699,
    "accuracy_meters": 500,
    "confidence_score": 82,
    "office_type": "CONSTITUENCY_OFFICE",
    "verified": true
  },
  {
    "county": "BUSIA",
    "constituency_name": "BUDALANGI",
    "office_location": "Budalangi Market",
    "landmark": "Budalangi Primary School",
    "latitude": 0.1108678,
    "longitude": 34.0462022,
    "accuracy_meters": 500,
    "confidence_score": null,
    "office_type": "CONSTITUENCY_OFFICE",
    "verified": true
  },
  {
    "county": "KIAMBU",
    "constituency_name": "RUIRU",
    "office_location": "Ruiru Law Courts",
    "landmark": "Ruiru Law Courts",
    "latitude": -1.1407731,
    "longitude": 36.9551568,
    "accuracy_meters": 500,
    "confidence_score": null,
    "office_type": "CONSTITUENCY_OFFICE",
    "verified": true
  },
  {
    "county": "MERU",
    "constituency_name": "IGEMBE NORTH",
    "office_location": "Laare",
    "landmark": "Kajuko Centre",
    "latitude": 0.2833,
    "longitude": 37.9167,
    "accuracy_meters": 500,
    "confidence_score": null,
    "office_type": "CONSTITUENCY_OFFICE",
    "verified": true
  },
  {
    "county": "KISUMU",
    "constituency_name": "KISUMU EAST",
    "office_location": "Mamboleo Show Ground",
    "landmark": "Mamboleo Show Ground",
    "latitude": -0.0669665,
    "longitude": 34.7824289,
    "accuracy_meters": 500,
    "confidence_score": 40,
    "office_type": "CONSTITUENCY_OFFICE",
    "verified": true
  },
  {
    "county": "EMBU",
    "constituency_name": "MBEERE SOUTH",
    "office_location": "Kiritiri Town",
    "landmark": "DCC Offices, Mbeere East",
    "latitude": -0.43746,
    "longitude": 37.61838,
    "accuracy_meters": 500,
    "confidence_score": null,
    "office_type": "CONSTITUENCY_OFFICE",
    "verified": true
  },
  {
    "county": "NAROK",
    "constituency_name": "NAROK SOUTH",
    "office_location": "Ololulunga",
    "landmark": "Ololulunga Police Station",
    "latitude": -1.75,
    "longitude": 35.35,
    "accuracy_meters": 500,
    "confidence_score": 78,
    "office_type": "CONSTITUENCY_OFFICE",
    "verified": true
  },
  {
    "county": "SIAYA",
    "constituency_name": "GEM",
    "office_location": "Nyangweso Market Centre - Adjacent Sawagongo High School",
    "landmark": "Sawagongo High School",
    "latitude": 0.0938571333333333,
    "longitude": 34.5369305,
    "accuracy_meters": 500,
    "confidence_score": 82,
    "office_type": "CONSTITUENCY_OFFICE",
    "verified": true
  },
  {
    "county": "KILIFI",
    "constituency_name": "GANZE",
    "office_location": "Ganze Town",
    "landmark": "Ganze Sub-County Police HQ",
    "latitude": -3.54324,
    "longitude": 39.6912,
    "accuracy_meters": 500,
    "confidence_score": null,
    "office_type": "CONSTITUENCY_OFFICE",
    "verified": true
  },
  {
    "county": "MIGORI",
    "constituency_name": "KURIA EAST",
    "office_location": "Kegonga Town",
    "landmark": "DCC Office Kuria East",
    "latitude": -1.15,
    "longitude": 34.5667,
    "accuracy_meters": 500,
    "confidence_score": 35,
    "office_type": "CONSTITUENCY_OFFICE",
    "verified": true
  },
  {
    "county": "MAKUENI",
    "constituency_name": "KILOME",
    "office_location": "Kwa DC (Malili)",
    "landmark": "Konza City (Malili)",
    "latitude": -1.78971005,
    "longitude": 37.21574475,
    "accuracy_meters": 500,
    "confidence_score": 82,
    "office_type": "CONSTITUENCY_OFFICE",
    "verified": true
  },
  {
    "county": "VIHIGA",
    "constituency_name": "SABATIA",
    "office_location": "DCC Compound",
    "landmark": "Sabatia Eye Hospital",
    "latitude": 0.118168,
    "longitude": 34.7330125,
    "accuracy_meters": 500,
    "confidence_score": 82,
    "office_type": "CONSTITUENCY_OFFICE",
    "verified": true
  },
  {
    "county": "KISUMU",
    "constituency_name": "KISUMU WEST",
    "office_location": "DCCs office block opposite the new DCCs/Huduma",
    "landmark": "Huduma Centre & CDF Office",
    "latitude": -0.1199,
    "longitude": 34.75502,
    "accuracy_meters": 500,
    "confidence_score": 78,
    "office_type": "CONSTITUENCY_OFFICE",
    "verified": true
  },
  {
    "county": "NAIROBI",
    "constituency_name": "EMBAKASI CENTRAL",
    "office_location": "DO's Office Kayole",
    "landmark": "DO's Office Kayole",
    "latitude": -1.2856,
    "longitude": 36.9089,
    "accuracy_meters": 500,
    "confidence_score": 47,
    "office_type": "CONSTITUENCY_OFFICE",
    "verified": true
  },
  {
    "county": "BUNGOMA",
    "constituency_name": "SIRISIA",
    "office_location": "IEBC Office",
    "landmark": "DCC Office",
    "latitude": 0.6587,
    "longitude": 34.4928,
    "accuracy_meters": 500,
    "confidence_score": null,
    "office_type": "CONSTITUENCY_OFFICE",
    "verified": true
  },
  {
    "county": "WAJIR",
    "constituency_name": "ELDAS",
    "office_location": "Eldas",
    "landmark": "DC's Residence",
    "latitude": 2.49139,
    "longitude": 39.56653,
    "accuracy_meters": 500,
    "confidence_score": 35,
    "office_type": "CONSTITUENCY_OFFICE",
    "verified": true
  },
  {
    "county": "MOMBASA",
    "constituency_name": "MVITA",
    "office_location": "Kizingo, Rashid Sajad road",
    "landmark": "Chef Royale Restaurant",
    "latitude": -4.0635,
    "longitude": 39.6626,
    "accuracy_meters": 500,
    "confidence_score": 44,
    "office_type": "CONSTITUENCY_OFFICE",
    "verified": true
  },
  {
    "county": "GARISSA",
    "constituency_name": "DADAAB",
    "office_location": "Dadaab Town, Opposite Un Compound",
    "landmark": "Opposite UN Compound",
    "latitude": 0.0522555,
    "longitude": 40.3084786,
    "accuracy_meters": 500,
    "confidence_score": 46,
    "office_type": "CONSTITUENCY_OFFICE",
    "verified": true
  },
  {
    "county": "WAJIR",
    "constituency_name": "TARBAJ",
    "office_location": "Tarbaj",
    "landmark": "Ward Administrator's Office",
    "latitude": 2.20805,
    "longitude": 40.11812,
    "accuracy_meters": 500,
    "confidence_score": 52,
    "office_type": "CONSTITUENCY_OFFICE",
    "verified": true
  },
  {
    "county": "MACHAKOS",
    "constituency_name": "MACHAKOS TOWN",
    "office_location": "IEBC County Offices compound,behind",
    "landmark": "Mwatu wa Ngoma Street",
    "latitude": -1.51851925,
    "longitude": 37.26785205,
    "accuracy_meters": 500,
    "confidence_score": 46,
    "office_type": "CONSTITUENCY_OFFICE",
    "verified": true
  },
  {
    "county": "KAJIADO",
    "constituency_name": "KAJIADO NORTH",
    "office_location": "Ngong DCC Office",
    "landmark": "Ngong DCC Office",
    "latitude": -2.131,
    "longitude": 36.878,
    "accuracy_meters": 500,
    "confidence_score": 51,
    "office_type": "CONSTITUENCY_OFFICE",
    "verified": true
  },
  {
    "county": "KAJIADO",
    "constituency_name": "KAJIADO WEST",
    "office_location": "St Mary's Catholic Church-Kiserian",
    "landmark": "St Mary's Catholic Church",
    "latitude": -1.8522,
    "longitude": 36.7764,
    "accuracy_meters": 500,
    "confidence_score": 42,
    "office_type": "CONSTITUENCY_OFFICE",
    "verified": true
  },
  {
    "county": "BUSIA",
    "constituency_name": "TESO SOUTH",
    "office_location": "DCC's Compound",
    "landmark": "DCC's Building",
    "latitude": 0.4609,
    "longitude": 34.1116,
    "accuracy_meters": 500,
    "confidence_score": 35,
    "office_type": "CONSTITUENCY_OFFICE",
    "verified": true
  },
  {
    "county": "KISUMU",
    "constituency_name": "SEME",
    "office_location": "Kombewa DCC Compound",
    "landmark": "Kombewa Sub-County Hospital",
    "latitude": -0.1199,
    "longitude": 34.75502,
    "accuracy_meters": 500,
    "confidence_score": 42,
    "office_type": "CONSTITUENCY_OFFICE",
    "verified": true
  },
  {
    "county": "KISUMU",
    "constituency_name": "NYAKACH",
    "office_location": "Pap Onditi DCC Compound",
    "landmark": "Next to DC's Office",
    "latitude": -0.102443633333333,
    "longitude": 34.7591987,
    "accuracy_meters": 500,
    "confidence_score": 81,
    "office_type": "CONSTITUENCY_OFFICE",
    "verified": true
  },
  {
    "county": "NYAMIRA",
    "constituency_name": "WEST MUGIRANGO",
    "office_location": "Nyamira Town",
    "landmark": "Next to Nyamira Law Courts",
    "latitude": -0.61973,
    "longitude": 34.97418,
    "accuracy_meters": 500,
    "confidence_score": 46,
    "office_type": "CONSTITUENCY_OFFICE",
    "verified": true
  },
  {
    "county": "NYAMIRA",
    "constituency_name": "NORTH MUGIRANGO",
    "office_location": "Ekerenyo Market",
    "landmark": "Ekerenyo Bus Stage",
    "latitude": -0.648,
    "longitude": 34.967,
    "accuracy_meters": 500,
    "confidence_score": 51,
    "office_type": "CONSTITUENCY_OFFICE",
    "verified": true
  },
  {
    "county": "NAIROBI",
    "constituency_name": "EMBAKASI EAST",
    "office_location": "IEBC Aviation utawala",
    "landmark": "EASA",
    "latitude": -1.3149055,
    "longitude": 36.9026529,
    "accuracy_meters": 500,
    "confidence_score": 36,
    "office_type": "CONSTITUENCY_OFFICE",
    "verified": true
  },
  {
    "county": "KISII",
    "constituency_name": "NYARIBARI MASABA",
    "office_location": "Kikkiomitiomit",
    "landmark": "DCC's Office",
    "latitude": -0.68096815,
    "longitude": 34.76800345,
    "accuracy_meters": 500,
    "confidence_score": 64,
    "office_type": "CONSTITUENCY_OFFICE",
    "verified": true
  },
  {
    "county": "NAIROBI",
    "constituency_name": null,
    "office_location": "EMBAKASI East",
    "landmark": "Near Fedha Road",
    "latitude": -1.31222744149985,
    "longitude": 36.9050449132919,
    "accuracy_meters": null,
    "confidence_score": 35,
    "office_type": "CONSTITUENCY_OFFICE",
    "verified": true
  },
  {
    "county": "MURANG'A",
    "constituency_name": "KANGEMA",
    "office_location": "Kangema Town",
    "landmark": "DCC's Office",
    "latitude": -0.65728645,
    "longitude": 36.8346054,
    "accuracy_meters": 500,
    "confidence_score": 82,
    "office_type": "CONSTITUENCY_OFFICE",
    "verified": true
  },
  {
    "county": "NAIROBI",
    "constituency_name": "DAGORETTI NORTH",
    "office_location": "Maliposa Appartments - Ngong Road",
    "landmark": "Nakumatt Junction",
    "latitude": -1.2607,
    "longitude": 36.7575,
    "accuracy_meters": 500,
    "confidence_score": 57,
    "office_type": "CONSTITUENCY_OFFICE",
    "verified": true
  },
  {
    "county": "KISUMU",
    "constituency_name": "NYANDO",
    "office_location": "Awasi DCC Compound",
    "landmark": "Awasi DCC Compound",
    "latitude": -0.16020715,
    "longitude": 35.0718245,
    "accuracy_meters": 500,
    "confidence_score": 82,
    "office_type": "CONSTITUENCY_OFFICE",
    "verified": true
  },
  {
    "county": "KISII",
    "constituency_name": "BOMACHOGE CHACHE",
    "office_location": "Ogembo",
    "landmark": "DCC's Office",
    "latitude": -0.7833,
    "longitude": 34.7833,
    "accuracy_meters": 500,
    "confidence_score": 82,
    "office_type": "CONSTITUENCY_OFFICE",
    "verified": true
  },
  {
    "county": "MERU",
    "constituency_name": "CENTRAL IMENTI",
    "office_location": "Gatimbi Market",
    "landmark": "Equator Signpost",
    "latitude": 0.044,
    "longitude": 37.6483,
    "accuracy_meters": 500,
    "confidence_score": null,
    "office_type": "CONSTITUENCY_OFFICE",
    "verified": true
  },
  {
    "county": "ELGEYO-MARAKWET",
    "constituency_name": "KEIYO SOUTH",
    "office_location": "Chepkorio Prime Tower Sacco",
    "landmark": "Prime Tower Sacco Society",
    "latitude": 0.42974,
    "longitude": 35.55436,
    "accuracy_meters": 500,
    "confidence_score": null,
    "office_type": "CONSTITUENCY_OFFICE",
    "verified": true
  },
  {
    "county": "WEST POKOT",
    "constituency_name": "POKOT SOUTH",
    "office_location": "St Marks Development Centre",
    "landmark": "DCC Offices",
    "latitude": 1.241691,
    "longitude": 35.1180545333333,
    "accuracy_meters": 500,
    "confidence_score": 82,
    "office_type": "CONSTITUENCY_OFFICE",
    "verified": true
  },
  {
    "county": "MIGORI",
    "constituency_name": "RONGO",
    "office_location": "Rongo Town",
    "landmark": "DCC Office Rongo Sub County",
    "latitude": -0.8,
    "longitude": 34.5833,
    "accuracy_meters": 500,
    "confidence_score": null,
    "office_type": "CONSTITUENCY_OFFICE",
    "verified": true
  },
  {
    "county": "BUNGOMA",
    "constituency_name": "KIMILILI",
    "office_location": "Great Lounch Hotel Building",
    "landmark": "Opposite Kimilili DEB Primary",
    "latitude": 0.75,
    "longitude": 34.7167,
    "accuracy_meters": 500,
    "confidence_score": null,
    "office_type": "CONSTITUENCY_OFFICE",
    "verified": true
  },
  {
    "county": "TAITA TAVETA",
    "constituency_name": "VOI",
    "office_location": "Behind Taita Taveta County Public Service",
    "landmark": "Voi Remand GK Prison",
    "latitude": -3.4,
    "longitude": 37.6833,
    "accuracy_meters": 500,
    "confidence_score": 78,
    "office_type": "CONSTITUENCY_OFFICE",
    "verified": true
  },
  {
    "county": "KAKAMEGA",
    "constituency_name": "KHWISERO",
    "office_location": "Within DCC's Offices",
    "landmark": "DCC's Office",
    "latitude": 0.1167,
    "longitude": 34.55,
    "accuracy_meters": 500,
    "confidence_score": 82,
    "office_type": "CONSTITUENCY_OFFICE",
    "verified": true
  },
  {
    "county": "ISIOLO",
    "constituency_name": "ISIOLO NORTH",
    "office_location": "Isiolo Town",
    "landmark": "Isiolo County Assembly",
    "latitude": 0.3544203,
    "longitude": 37.585535,
    "accuracy_meters": 500,
    "confidence_score": 82,
    "office_type": "CONSTITUENCY_OFFICE",
    "verified": true
  },
  {
    "county": "MARSABIT",
    "constituency_name": "MOYALE",
    "office_location": "ACK Moyale.",
    "landmark": "St. Paul Training Centre",
    "latitude": 3.52661,
    "longitude": 39.0561,
    "accuracy_meters": 500,
    "confidence_score": null,
    "office_type": "CONSTITUENCY_OFFICE",
    "verified": true
  },
  {
    "county": "UASIN GISHU",
    "constituency_name": "SOY",
    "office_location": "Meadows Plaza, opposite Sirikwa Hotel",
    "landmark": "Meadows Plaza",
    "latitude": 0.5,
    "longitude": 35.58333,
    "accuracy_meters": 500,
    "confidence_score": null,
    "office_type": "CONSTITUENCY_OFFICE",
    "verified": true
  },
  {
    "county": "MIGORI",
    "constituency_name": "URIRI",
    "office_location": "Uriri Town",
    "landmark": "DCC Office Uriri Sub County",
    "latitude": -0.8667,
    "longitude": 34.5167,
    "accuracy_meters": 50,
    "confidence_score": null,
    "office_type": "CONSTITUENCY_OFFICE",
    "verified": true
  },
  {
    "county": "MERU",
    "constituency_name": "BUURI",
    "office_location": "Timau",
    "landmark": "DCC Buuri West Office",
    "latitude": 0.0833,
    "longitude": 37.4167,
    "accuracy_meters": 500,
    "confidence_score": null,
    "office_type": "CONSTITUENCY_OFFICE",
    "verified": true
  },
  {
    "county": "BUNGOMA",
    "constituency_name": "MT. ELGON",
    "office_location": "Kapsokwony",
    "landmark": "Koony House",
    "latitude": 0.54931,
    "longitude": 34.56338,
    "accuracy_meters": 500,
    "confidence_score": null,
    "office_type": "CONSTITUENCY_OFFICE",
    "verified": true
  },
  {
    "county": "KILIFI",
    "constituency_name": null,
    "office_location": "Madzimbani primary center",
    "landmark": "Madzimbani primary school",
    "latitude": -3.85556005361762,
    "longitude": 39.4773852825165,
    "accuracy_meters": null,
    "confidence_score": null,
    "office_type": "CONSTITUENCY_OFFICE",
    "verified": true
  },
  {
    "county": "TAITA TAVETA",
    "constituency_name": "MWATATE",
    "office_location": "Mwatate old market, along Wundanyi road",
    "landmark": "Tavevo Water & Sewerage Company",
    "latitude": -3.5,
    "longitude": 38.3833,
    "accuracy_meters": 500,
    "confidence_score": null,
    "office_type": "CONSTITUENCY_OFFICE",
    "verified": true
  },
  {
    "county": "NAIROBI",
    "constituency_name": "EMBAKASI SOUTH",
    "office_location": "Villa Franca",
    "landmark": "Equity Afya Hospital",
    "latitude": -1.3223,
    "longitude": 36.8981,
    "accuracy_meters": 500,
    "confidence_score": 52,
    "office_type": "CONSTITUENCY_OFFICE",
    "verified": true
  },
  {
    "county": "SIAYA",
    "constituency_name": "UGENYA",
    "office_location": "Ukwala - Opposite Sub County Officers Posta - Ukwala",
    "landmark": "Posta Ukwala",
    "latitude": 0.16667,
    "longitude": 34.26667,
    "accuracy_meters": 500,
    "confidence_score": 37,
    "office_type": "CONSTITUENCY_OFFICE",
    "verified": true
  },
  {
    "county": "WAJIR",
    "constituency_name": "WAJIR SOUTH",
    "office_location": "Habaswein",
    "landmark": "AP Camp",
    "latitude": 1.01512715,
    "longitude": 39.49382815,
    "accuracy_meters": 500,
    "confidence_score": 28,
    "office_type": "CONSTITUENCY_OFFICE",
    "verified": true
  },
  {
    "county": "MAKUENI",
    "constituency_name": "KAITI",
    "office_location": "Mukuyuni Shopping Centre (CDF Compound)",
    "landmark": "Mukuyuni Police Station",
    "latitude": 0.226309,
    "longitude": 36.36874,
    "accuracy_meters": 500,
    "confidence_score": 34,
    "office_type": "CONSTITUENCY_OFFICE",
    "verified": true
  },
  {
    "county": "TAITA TAVETA",
    "constituency_name": "WUNDANYI",
    "office_location": "Along Administration offices(Deputy County",
    "landmark": "Kenya Forest Service County Office",
    "latitude": -3.39642,
    "longitude": 38.35729,
    "accuracy_meters": 500,
    "confidence_score": null,
    "office_type": "CONSTITUENCY_OFFICE",
    "verified": true
  },
  {
    "county": "KWALE",
    "constituency_name": "MSAMBWENI",
    "office_location": "Msambweni Dcc's Office Compound",
    "landmark": "Subcounty Headquarters",
    "latitude": -4.4674,
    "longitude": 39.4775,
    "accuracy_meters": 500,
    "confidence_score": 82,
    "office_type": "CONSTITUENCY_OFFICE",
    "verified": true
  },
  {
    "county": "KISII",
    "constituency_name": "BONCHARI",
    "office_location": "Suneka Market",
    "landmark": "Itierio Boys High School",
    "latitude": -0.7186,
    "longitude": 34.8083,
    "accuracy_meters": 500,
    "confidence_score": 26,
    "office_type": "CONSTITUENCY_OFFICE",
    "verified": true
  },
  {
    "county": "MURANG'A",
    "constituency_name": "GATANGA",
    "office_location": "Kirwara Town",
    "landmark": "Opposite Kirwara Police Station",
    "latitude": -0.1030863,
    "longitude": 34.7560645,
    "accuracy_meters": 500,
    "confidence_score": 78,
    "office_type": "CONSTITUENCY_OFFICE",
    "verified": true
  },
  {
    "county": "NYAMIRA",
    "constituency_name": "KITUTU MASABA",
    "office_location": "Manga DCC Compound",
    "landmark": "Manga Cliff",
    "latitude": -0.6911864,
    "longitude": 34.9156819,
    "accuracy_meters": 500,
    "confidence_score": 82,
    "office_type": "CONSTITUENCY_OFFICE",
    "verified": true
  },
  {
    "county": "KIAMBU",
    "constituency_name": "THIKA TOWN",
    "office_location": "Afc Building Thika",
    "landmark": "Buffalo Grill & Butchery",
    "latitude": -1.0396,
    "longitude": 37.0693,
    "accuracy_meters": 500,
    "confidence_score": null,
    "office_type": "CONSTITUENCY_OFFICE",
    "verified": true
  },
  {
    "county": "NYERI",
    "constituency_name": "OTHAYA",
    "office_location": "DCC Offices Grounds",
    "landmark": "DCC Office",
    "latitude": -0.5367,
    "longitude": 36.9544,
    "accuracy_meters": 500,
    "confidence_score": 35,
    "office_type": "CONSTITUENCY_OFFICE",
    "verified": true
  },
  {
    "county": "NAROK",
    "constituency_name": "NAROK EAST",
    "office_location": "Ntulele",
    "landmark": "Ntulele Police Station",
    "latitude": -1.5,
    "longitude": 36,
    "accuracy_meters": 500,
    "confidence_score": 24,
    "office_type": "CONSTITUENCY_OFFICE",
    "verified": true
  },
  {
    "county": "LAIKIPIA",
    "constituency_name": "LAIKIPIA EAST",
    "office_location": "Laikipia County Commissioners",
    "landmark": "County Commissioner's Office",
    "latitude": 0.33333,
    "longitude": 36.76667,
    "accuracy_meters": 500,
    "confidence_score": 66,
    "office_type": "CONSTITUENCY_OFFICE",
    "verified": true
  },
  {
    "county": "NYERI",
    "constituency_name": "TETU",
    "office_location": "Tetu Sub County Headquarters",
    "landmark": "DCC Offices / NGCDF Offices",
    "latitude": -0.4503,
    "longitude": 36.9321,
    "accuracy_meters": 500,
    "confidence_score": 78,
    "office_type": "CONSTITUENCY_OFFICE",
    "verified": true
  },
  {
    "county": "KAKAMEGA",
    "constituency_name": "MUMIAS WEST",
    "office_location": "ACK Guest House",
    "landmark": "ACK Church Complex",
    "latitude": 0.3539,
    "longitude": 34.4772,
    "accuracy_meters": 500,
    "confidence_score": null,
    "office_type": "CONSTITUENCY_OFFICE",
    "verified": true
  },
  {
    "county": "MIGORI",
    "constituency_name": "AWENDO",
    "office_location": "Awendo Town",
    "landmark": "NCPB Awendo",
    "latitude": -0.95,
    "longitude": 34.6167,
    "accuracy_meters": 500,
    "confidence_score": null,
    "office_type": "CONSTITUENCY_OFFICE",
    "verified": true
  },
  {
    "county": "BOMET",
    "constituency_name": "BOMET CENTRAL",
    "office_location": "Bomet Town",
    "landmark": "NCPB",
    "latitude": -0.783707733333333,
    "longitude": 35.3384519333333,
    "accuracy_meters": 500,
    "confidence_score": 82,
    "office_type": "CONSTITUENCY_OFFICE",
    "verified": true
  },
  {
    "county": "MERU",
    "constituency_name": "TIGANIA WEST",
    "office_location": "Kianjai Town",
    "landmark": "Kianjai National Bank",
    "latitude": 0.1833,
    "longitude": 37.8667,
    "accuracy_meters": 500,
    "confidence_score": 46,
    "office_type": "CONSTITUENCY_OFFICE",
    "verified": true
  },
  {
    "county": "BUNGOMA",
    "constituency_name": "TONGAREN",
    "office_location": "Within Bungoma North Sub-County National Government CDF Offices",
    "landmark": "National Government CDF Offices",
    "latitude": 0.6867,
    "longitude": 34.62,
    "accuracy_meters": 500,
    "confidence_score": null,
    "office_type": "CONSTITUENCY_OFFICE",
    "verified": true
  },
  {
    "county": "KIAMBU",
    "constituency_name": "JUJA",
    "office_location": "Menja Vision Plaza",
    "landmark": "Behind Aga Khan Hospital",
    "latitude": -1.1005,
    "longitude": 37.0134,
    "accuracy_meters": 500,
    "confidence_score": 78,
    "office_type": "CONSTITUENCY_OFFICE",
    "verified": true
  },
  {
    "county": "TURKANA",
    "constituency_name": "TURKANA CENTRAL",
    "office_location": "DCC's Compound Lodwar",
    "landmark": "Huduma Centre",
    "latitude": 3.1117,
    "longitude": 35.5972,
    "accuracy_meters": 500,
    "confidence_score": 78,
    "office_type": "CONSTITUENCY_OFFICE",
    "verified": true
  },
  {
    "county": "MACHAKOS",
    "constituency_name": "MATUNGULU",
    "office_location": "Kangundo Junior School Within Tala Town",
    "landmark": "Tala Town",
    "latitude": -1.2701719,
    "longitude": 37.3261485,
    "accuracy_meters": 500,
    "confidence_score": 82,
    "office_type": "CONSTITUENCY_OFFICE",
    "verified": true
  },
  {
    "county": "NANDI",
    "constituency_name": "MOSOP",
    "office_location": "Kabiyet-Nandi North District Headquarters",
    "landmark": "District Headquarters",
    "latitude": 1.13333,
    "longitude": 35.5,
    "accuracy_meters": 500,
    "confidence_score": null,
    "office_type": "CONSTITUENCY_OFFICE",
    "verified": true
  },
  {
    "county": "BUNGOMA",
    "constituency_name": "BUMULA",
    "office_location": "Bumula DCC Ofiice",
    "landmark": "DCC Compound",
    "latitude": 0.5333,
    "longitude": 34.5667,
    "accuracy_meters": 500,
    "confidence_score": null,
    "office_type": "CONSTITUENCY_OFFICE",
    "verified": true
  },
  {
    "county": "HOMA BAY",
    "constituency_name": "NDHIWA",
    "office_location": "Within Ndhiwa Sub County DCC Complex Along Ndhiwa",
    "landmark": "Deputy County Commissioner's Office",
    "latitude": -0.7333,
    "longitude": 34.4333,
    "accuracy_meters": 500,
    "confidence_score": null,
    "office_type": "CONSTITUENCY_OFFICE",
    "verified": true
  },
  {
    "county": "MERU",
    "constituency_name": "TIGANIA EAST",
    "office_location": "Muriri DCC Compound",
    "landmark": "DCC Office",
    "latitude": 0.2167,
    "longitude": 37.9833,
    "accuracy_meters": 500,
    "confidence_score": null,
    "office_type": "CONSTITUENCY_OFFICE",
    "verified": true
  },
  {
    "county": "MAKUENI",
    "constituency_name": "KIBWEZI WEST",
    "office_location": "Makindu Town",
    "landmark": "DCC's Office",
    "latitude": -2.25999954293009,
    "longitude": 37.8030345096163,
    "accuracy_meters": 500,
    "confidence_score": 43,
    "office_type": "CONSTITUENCY_OFFICE",
    "verified": true
  },
  {
    "county": "THARAKA-NITHI",
    "constituency_name": "CHUKA/IGAMBANG'OMBE",
    "office_location": "Chuka Town, Sub County Office Compound",
    "landmark": "Opposite Trans National Bank",
    "latitude": -0.3333,
    "longitude": 37.65,
    "accuracy_meters": 500,
    "confidence_score": null,
    "office_type": "CONSTITUENCY_OFFICE",
    "verified": true
  },
  {
    "county": "VIHIGA",
    "constituency_name": "HAMISI",
    "office_location": "Hamisi Youth Empowerment Centre",
    "landmark": "Hamisi Sub-County Hospital",
    "latitude": 0.07538,
    "longitude": 34.71006,
    "accuracy_meters": 500,
    "confidence_score": 78,
    "office_type": "CONSTITUENCY_OFFICE",
    "verified": true
  },
  {
    "county": "ISIOLO",
    "constituency_name": "ISIOLO SOUTH",
    "office_location": "Garbatulla Town",
    "landmark": "Catholic Mission Compound",
    "latitude": 0.3544203,
    "longitude": 37.585535,
    "accuracy_meters": 500,
    "confidence_score": 82,
    "office_type": "CONSTITUENCY_OFFICE",
    "verified": true
  },
  {
    "county": "KERICHO",
    "constituency_name": "BURETI",
    "office_location": "Litein Town, Patnas Plaza",
    "landmark": "Patnas Plaza",
    "latitude": -0.5,
    "longitude": 35.1167,
    "accuracy_meters": 500,
    "confidence_score": 82,
    "office_type": "CONSTITUENCY_OFFICE",
    "verified": true
  },
  {
    "county": "NAKURU",
    "constituency_name": "KURESOI SOUTH",
    "office_location": "Keringet centre- Keringet Mall",
    "landmark": "Keringet Centre",
    "latitude": -0.3,
    "longitude": 35.7167,
    "accuracy_meters": 500,
    "confidence_score": null,
    "office_type": "CONSTITUENCY_OFFICE",
    "verified": true
  },
  {
    "county": "NAROK",
    "constituency_name": "NAROK NORTH",
    "office_location": "Narok North CDF Offices",
    "landmark": "Narok County Commissioner's Offices",
    "latitude": -1.0833,
    "longitude": 35.8667,
    "accuracy_meters": 500,
    "confidence_score": 40,
    "office_type": "CONSTITUENCY_OFFICE",
    "verified": true
  },
  {
    "county": "KWALE",
    "constituency_name": "MATUGA",
    "office_location": "IEBC Offices, Kwale Town, Opposite Ministry of",
    "landmark": "Baraza Park, Kwale Town",
    "latitude": -4.165,
    "longitude": 39.5373,
    "accuracy_meters": 500,
    "confidence_score": 35,
    "office_type": "CONSTITUENCY_OFFICE",
    "verified": true
  },
  {
    "county": "NYAMIRA",
    "constituency_name": "BORABU",
    "office_location": "DCC Office Compound in Kijauri Town DCC Offfice",
    "landmark": "DCC Office",
    "latitude": -0.61973,
    "longitude": 34.97418,
    "accuracy_meters": 500,
    "confidence_score": 78,
    "office_type": "CONSTITUENCY_OFFICE",
    "verified": true
  },
  {
    "county": "NAKURU",
    "constituency_name": "NAKURU TOWN WEST",
    "office_location": "County council offices, opposite Kenya Farmers",
    "landmark": "KFA Roundabout, Nakuru Town",
    "latitude": -0.2833,
    "longitude": 36.0333,
    "accuracy_meters": 500,
    "confidence_score": 57,
    "office_type": "CONSTITUENCY_OFFICE",
    "verified": true
  },
  {
    "county": "NYERI",
    "constituency_name": "NYERI TOWN",
    "office_location": "DCC Offices Grounds",
    "landmark": "Huduma Centre",
    "latitude": -0.4246,
    "longitude": 36.951,
    "accuracy_meters": 500,
    "confidence_score": 82,
    "office_type": "CONSTITUENCY_OFFICE",
    "verified": true
  },
  {
    "county": "BOMET",
    "constituency_name": "BOMET EAST",
    "office_location": "AFC Building, Bomet Town",
    "landmark": "Shell Petrol Station",
    "latitude": -0.73155,
    "longitude": 35.3159,
    "accuracy_meters": 500,
    "confidence_score": 78,
    "office_type": "CONSTITUENCY_OFFICE",
    "verified": true
  },
  {
    "county": "HOMA BAY",
    "constituency_name": "HOMA BAY TOWN",
    "office_location": "Behind CC's Complex in Homabay Town",
    "landmark": "County Commissioner's Office",
    "latitude": -0.5167,
    "longitude": 34.4667,
    "accuracy_meters": 500,
    "confidence_score": 80,
    "office_type": "CONSTITUENCY_OFFICE",
    "verified": true
  },
  {
    "county": "HOMA BAY",
    "constituency_name": "KARACHUONYO",
    "office_location": "Within Rachuonyo North DCC Complex at Kamodi",
    "landmark": "Kendu Bay Road",
    "latitude": -0.4833,
    "longitude": 34.6833,
    "accuracy_meters": 500,
    "confidence_score": 78,
    "office_type": "CONSTITUENCY_OFFICE",
    "verified": true
  },
  {
    "county": "VIHIGA",
    "constituency_name": "VIHIGA",
    "office_location": "IEBC Office",
    "landmark": "Vihiga High School",
    "latitude": 0.0722,
    "longitude": 34.7239,
    "accuracy_meters": 500,
    "confidence_score": 64,
    "office_type": "CONSTITUENCY_OFFICE",
    "verified": true
  },
  {
    "county": "LAMU",
    "constituency_name": "LAMU WEST",
    "office_location": "Ministry of Housing Office Building - Mokowe",
    "landmark": "Public Works Office",
    "latitude": -2.2678,
    "longitude": 40.6328,
    "accuracy_meters": 500,
    "confidence_score": 78,
    "office_type": "CONSTITUENCY_OFFICE",
    "verified": true
  },
  {
    "county": "HOMA BAY",
    "constituency_name": "MBITA",
    "office_location": "Kizingo, Rashid Sajad road",
    "landmark": "Along Mbita-Rusinga Road",
    "latitude": -0.5521,
    "longitude": 34.51116,
    "accuracy_meters": 500,
    "confidence_score": 78,
    "office_type": "CONSTITUENCY_OFFICE",
    "verified": true
  },
  {
    "county": "NYANDARUA",
    "constituency_name": "OL KALOU",
    "office_location": "IEBC County Headqauters",
    "landmark": "Posta Building Ol Kalou",
    "latitude": -0.17432,
    "longitude": 36.39028,
    "accuracy_meters": 500,
    "confidence_score": 36,
    "office_type": "CONSTITUENCY_OFFICE",
    "verified": true
  },
  {
    "county": "MOMBASA",
    "constituency_name": "KISAUNI",
    "office_location": "Bamburi Fisheries, Shangaza Estate House 9",
    "landmark": "Supa Loaf Bakery",
    "latitude": -3.9918,
    "longitude": 39.6979,
    "accuracy_meters": 500,
    "confidence_score": 34,
    "office_type": "CONSTITUENCY_OFFICE",
    "verified": true
  },
  {
    "county": "KISII",
    "constituency_name": "NYARIBARI CHACHE",
    "office_location": "Kisii town",
    "landmark": "County Commissioner's Office",
    "latitude": -0.6917,
    "longitude": 34.7833,
    "accuracy_meters": 500,
    "confidence_score": 91,
    "office_type": "CONSTITUENCY_OFFICE",
    "verified": true
  },
  {
    "county": "KAKAMEGA",
    "constituency_name": "MALAVA",
    "office_location": "Malava Friends Church Compound.",
    "landmark": "Malava Boys High School",
    "latitude": 0.32,
    "longitude": 34.8467,
    "accuracy_meters": 500,
    "confidence_score": 32,
    "office_type": "CONSTITUENCY_OFFICE",
    "verified": true
  },
  {
    "county": "NAIROBI",
    "constituency_name": "EMBAKASI EAST",
    "office_location": "East Africa School of Aviation",
    "landmark": "EASA",
    "latitude": -1.3264,
    "longitude": 36.9274,
    "accuracy_meters": 500,
    "confidence_score": 78,
    "office_type": "CONSTITUENCY_OFFICE",
    "verified": true
  },
  {
    "county": "KISUMU",
    "constituency_name": "KISUMU CENTRAL",
    "office_location": "Huduma Centre Wing C Ground Floor",
    "landmark": "Huduma Centre",
    "latitude": -0.1030863,
    "longitude": 34.7560645,
    "accuracy_meters": 500,
    "confidence_score": 43,
    "office_type": "CONSTITUENCY_OFFICE",
    "verified": true
  },
  {
    "county": "KAJIADO",
    "constituency_name": "KAJIADO SOUTH",
    "office_location": "Kajiado County Government Revenue Loitoktok DCC Office",
    "landmark": "Loitoktok DCC Office",
    "latitude": -1.57431,
    "longitude": 36.92928,
    "accuracy_meters": 500,
    "confidence_score": 43,
    "office_type": "CONSTITUENCY_OFFICE",
    "verified": true
  },
  {
    "county": "BUNGOMA",
    "constituency_name": "KANDUYI",
    "office_location": "Bungoma Cereals Board",
    "landmark": "Next to Silos Compound",
    "latitude": 0.5747,
    "longitude": 34.5596,
    "accuracy_meters": 500,
    "confidence_score": 51,
    "office_type": "CONSTITUENCY_OFFICE",
    "verified": true
  },
  {
    "county": "TURKANA",
    "constituency_name": "TURKANA SOUTH",
    "office_location": "DCC's Compound Lokichar",
    "landmark": "DCC's Office",
    "latitude": 2.4167,
    "longitude": 36,
    "accuracy_meters": 500,
    "confidence_score": 26,
    "office_type": "CONSTITUENCY_OFFICE",
    "verified": true
  },
  {
    "county": "KAKAMEGA",
    "constituency_name": "MATUNGU",
    "office_location": "Matungu Market, along Matungu -",
    "landmark": "Deputy County Commissioner's",
    "latitude": 0.2833,
    "longitude": 34.4333,
    "accuracy_meters": 500,
    "confidence_score": null,
    "office_type": "CONSTITUENCY_OFFICE",
    "verified": true
  },
  {
    "county": "KITUI",
    "constituency_name": "MWINGI CENTRAL",
    "office_location": "Mwingi Town Opposite NCPB Mwingi Depot",
    "landmark": "NCPB Mwingi Depot",
    "latitude": -0.9333,
    "longitude": 38.0667,
    "accuracy_meters": 500,
    "confidence_score": 34,
    "office_type": "CONSTITUENCY_OFFICE",
    "verified": true
  },
  {
    "county": "NAIROBI",
    "constituency_name": "KASARANI",
    "office_location": "Former DCC Offices",
    "landmark": "Chiefs Office Nearby",
    "latitude": -1.2174,
    "longitude": 36.8976,
    "accuracy_meters": 500,
    "confidence_score": 72,
    "office_type": "CONSTITUENCY_OFFICE",
    "verified": true
  },
  {
    "county": "MIGORI",
    "constituency_name": "NYATIKE",
    "office_location": "Macalda Town",
    "landmark": "County Government Office Macalda",
    "latitude": -0.9333,
    "longitude": 34.1333,
    "accuracy_meters": 500,
    "confidence_score": 35,
    "office_type": "CONSTITUENCY_OFFICE",
    "verified": true
  },
  {
    "county": "MACHAKOS",
    "constituency_name": "MAVOKO",
    "office_location": "DCC Office Compound in Athi River",
    "landmark": "DCC Office",
    "latitude": -1.4524625,
    "longitude": 36.9862237,
    "accuracy_meters": 500,
    "confidence_score": 82,
    "office_type": "CONSTITUENCY_OFFICE",
    "verified": true
  },
  {
    "county": "KILIFI",
    "constituency_name": "KILIFI SOUTH",
    "office_location": "Majengo Kanamai",
    "landmark": "Matatu Terminus",
    "latitude": -3.59778,
    "longitude": 39.85108,
    "accuracy_meters": 500,
    "confidence_score": 78,
    "office_type": "CONSTITUENCY_OFFICE",
    "verified": true
  },
  {
    "county": "THARAKA-NITHI",
    "constituency_name": "THARAKA",
    "office_location": "Marimanti Town, DCC Compound",
    "landmark": "DCC Offices",
    "latitude": -0.10094,
    "longitude": 38.030629,
    "accuracy_meters": 500,
    "confidence_score": 39,
    "office_type": "CONSTITUENCY_OFFICE",
    "verified": true
  },
  {
    "county": "MAKUENI",
    "constituency_name": "MBOONI",
    "office_location": "Tawa Social Hall",
    "landmark": "Tawa Law Courts",
    "latitude": -1.665951,
    "longitude": 37.5,
    "accuracy_meters": 500,
    "confidence_score": 34,
    "office_type": "CONSTITUENCY_OFFICE",
    "verified": true
  },
  {
    "county": "EMBU",
    "constituency_name": "MANYATTA",
    "office_location": "Embu Town-Along Embu-Meru Highway",
    "landmark": "ACK Embu Cathedral Church",
    "latitude": -1.745235,
    "longitude": 37.07183,
    "accuracy_meters": 500,
    "confidence_score": 35,
    "office_type": "CONSTITUENCY_OFFICE",
    "verified": true
  },
  {
    "county": "NAKURU",
    "constituency_name": "GILGIL",
    "office_location": "Hennsolex Building- Ground Floor- Gilgil Town",
    "landmark": "KPLC Gilgil",
    "latitude": -0.4944,
    "longitude": 36.3222,
    "accuracy_meters": 500,
    "confidence_score": 35,
    "office_type": "CONSTITUENCY_OFFICE",
    "verified": true
  },
  {
    "county": "NAIROBI",
    "constituency_name": "ROYSAMBU",
    "office_location": "Kahawa West Acc's Office/Police Station",
    "landmark": "ACC's Office / Police Station",
    "latitude": -1.1696,
    "longitude": 36.8745,
    "accuracy_meters": 500,
    "confidence_score": 84,
    "office_type": "CONSTITUENCY_OFFICE",
    "verified": true
  },
  {
    "county": "KISII",
    "constituency_name": "BOBASI",
    "office_location": "Itumbe",
    "landmark": "DCC's Office",
    "latitude": -0.7167,
    "longitude": 34.7833,
    "accuracy_meters": 500,
    "confidence_score": 39,
    "office_type": "CONSTITUENCY_OFFICE",
    "verified": true
  },
  {
    "county": "SAMBURU",
    "constituency_name": "SAMBURU WEST",
    "office_location": "Maralal Town",
    "landmark": "Samburu County Assembly",
    "latitude": 1.0951037,
    "longitude": 36.6956825333333,
    "accuracy_meters": 500,
    "confidence_score": 82,
    "office_type": "CONSTITUENCY_OFFICE",
    "verified": true
  },
  {
    "county": "MARSABIT",
    "constituency_name": "NORTH HORR",
    "office_location": "Nyota Self Help Group North Horr",
    "landmark": "Adjacent to AP Camp",
    "latitude": 3.324748,
    "longitude": 37.07032,
    "accuracy_meters": 500,
    "confidence_score": null,
    "office_type": "CONSTITUENCY_OFFICE",
    "verified": true
  },
  {
    "county": "MOMBASA",
    "constituency_name": "JOMVU",
    "office_location": "Mikindani Police Station",
    "landmark": "Mikindani Police Station",
    "latitude": -4.0191,
    "longitude": 39.593,
    "accuracy_meters": 500,
    "confidence_score": 36,
    "office_type": "CONSTITUENCY_OFFICE",
    "verified": true
  },
  {
    "county": "NAKURU",
    "constituency_name": "BAHATI",
    "office_location": "Do's Compound - Kiamaina / Maili Sita - Bahati",
    "landmark": "DO's Office",
    "latitude": -0.2167,
    "longitude": 36.1167,
    "accuracy_meters": 500,
    "confidence_score": 46,
    "office_type": "CONSTITUENCY_OFFICE",
    "verified": true
  },
  {
    "county": "EMBU",
    "constituency_name": "RUNYENJES",
    "office_location": "Embu East DCC Bulding, 1st Floor",
    "landmark": "DCC Offices, Embu East",
    "latitude": -0.42304,
    "longitude": 37.57052,
    "accuracy_meters": 500,
    "confidence_score": 55,
    "office_type": "CONSTITUENCY_OFFICE",
    "verified": true
  },
  {
    "county": "KWALE",
    "constituency_name": "KINANGO",
    "office_location": "Bebora Plaza, 3rd Floor, Kinango Town",
    "landmark": "Chief's Office Kinango Town",
    "latitude": -4.1371,
    "longitude": 39.323,
    "accuracy_meters": 500,
    "confidence_score": 36,
    "office_type": "CONSTITUENCY_OFFICE",
    "verified": true
  },
  {
    "county": "HOMA BAY",
    "constituency_name": "KABONDO KASIPUL",
    "office_location": "At Kadongo Centre Along Kisii - Kisumu Road",
    "landmark": "Renish Obunge Building",
    "latitude": -0.5833,
    "longitude": 34.65,
    "accuracy_meters": 500,
    "confidence_score": 78,
    "office_type": "CONSTITUENCY_OFFICE",
    "verified": true
  },
  {
    "county": "NAROK",
    "constituency_name": "KILGORIS",
    "office_location": "Old Kilgoris County Council Offices",
    "landmark": "Cooperative Bank Kilgoris",
    "latitude": -1.2167,
    "longitude": 34.8833,
    "accuracy_meters": 500,
    "confidence_score": 35,
    "office_type": "CONSTITUENCY_OFFICE",
    "verified": true
  },
  {
    "county": "TURKANA",
    "constituency_name": "LOIMA",
    "office_location": "DCC's Compound Lorgum",
    "landmark": "DCC's Office",
    "latitude": 2.9167,
    "longitude": 35.3167,
    "accuracy_meters": 500,
    "confidence_score": 42,
    "office_type": "CONSTITUENCY_OFFICE",
    "verified": true
  },
  {
    "county": "NAKURU",
    "constituency_name": "NJORO",
    "office_location": "Aic Church - Compound -Njoro",
    "landmark": "AIC Church",
    "latitude": -0.3333,
    "longitude": 35.95,
    "accuracy_meters": 500,
    "confidence_score": 35,
    "office_type": "CONSTITUENCY_OFFICE",
    "verified": true
  },
  {
    "county": "KERICHO",
    "constituency_name": "AINAMOI",
    "office_location": "County Commissioner's Compound Behind Administration Police and",
    "landmark": "AP & Children Dept. Office",
    "latitude": -0.3617,
    "longitude": 35.2867,
    "accuracy_meters": 500,
    "confidence_score": 45,
    "office_type": "CONSTITUENCY_OFFICE",
    "verified": true
  },
  {
    "county": "BARINGO",
    "constituency_name": "BARINGO CENTRAL",
    "office_location": "County Commissioners Premises,",
    "landmark": "County Commissioner's Premises",
    "latitude": 0.4667,
    "longitude": 35.9667,
    "accuracy_meters": 500,
    "confidence_score": 20,
    "office_type": "CONSTITUENCY_OFFICE",
    "verified": true
  },
  {
    "county": "MURANG'A",
    "constituency_name": "KIGUMO",
    "office_location": "Kangari Town",
    "landmark": "Muungano Microfinance Building",
    "latitude": -0.95736,
    "longitude": 37.11028,
    "accuracy_meters": 500,
    "confidence_score": 78,
    "office_type": "CONSTITUENCY_OFFICE",
    "verified": true
  },
  {
    "county": "WAJIR",
    "constituency_name": "WAJIR EAST",
    "office_location": "Wajir",
    "landmark": "Huduma Centre",
    "latitude": 1.7504651,
    "longitude": 40.0594959,
    "accuracy_meters": 500,
    "confidence_score": 85,
    "office_type": "CONSTITUENCY_OFFICE",
    "verified": true
  },
  {
    "county": "LAIKIPIA",
    "constituency_name": "LAIKIPIA WEST",
    "office_location": "Telkom Building Nyahururu Town",
    "landmark": "Nyahururu Law Courts",
    "latitude": 0.61889,
    "longitude": 36.44729,
    "accuracy_meters": 500,
    "confidence_score": 40,
    "office_type": "CONSTITUENCY_OFFICE",
    "verified": true
  },
  {
    "county": "KITUI",
    "constituency_name": "KITUI RURAL",
    "office_location": "Kwa Vonza Town",
    "landmark": "Kitui Rural CDF Building",
    "latitude": -1.4167,
    "longitude": 38.05,
    "accuracy_meters": 500,
    "confidence_score": 32,
    "office_type": "CONSTITUENCY_OFFICE",
    "verified": true
  },
  {
    "county": "NANDI",
    "constituency_name": "EMGWEN",
    "office_location": "Mininstry of Lands Kapsabet",
    "landmark": "Ministry of Lands / ACC Office",
    "latitude": -0.104359008555434,
    "longitude": 34.7559134239594,
    "accuracy_meters": 500,
    "confidence_score": 38,
    "office_type": "CONSTITUENCY_OFFICE",
    "verified": true
  },
  {
    "county": "BARINGO",
    "constituency_name": "MOGOTIO",
    "office_location": "Behind Boresha Sacco",
    "landmark": "Boresha Sacco",
    "latitude": 0.05,
    "longitude": 36,
    "accuracy_meters": 500,
    "confidence_score": 34,
    "office_type": "CONSTITUENCY_OFFICE",
    "verified": true
  },
  {
    "county": "TRANS-NZOIA",
    "constituency_name": "ENDEBESS",
    "office_location": "Endebess Centre",
    "landmark": "DCC's Office",
    "latitude": 1.07151,
    "longitude": 34.824389,
    "accuracy_meters": 500,
    "confidence_score": 36,
    "office_type": "CONSTITUENCY_OFFICE",
    "verified": true
  },
  {
    "county": "KAKAMEGA",
    "constituency_name": "IKOLOMANI",
    "office_location": "Sub-County Registrar of Persons Office Malinya Primary School",
    "landmark": "Malinya Primary School",
    "latitude": 0.1714,
    "longitude": 34.6228,
    "accuracy_meters": 500,
    "confidence_score": null,
    "office_type": "CONSTITUENCY_OFFICE",
    "verified": true
  },
  {
    "county": "NYERI",
    "constituency_name": "KIENI",
    "office_location": "Mweiga Town",
    "landmark": "Next to Equity ATM",
    "latitude": -0.3239,
    "longitude": 37.0162,
    "accuracy_meters": 500,
    "confidence_score": 78,
    "office_type": "CONSTITUENCY_OFFICE",
    "verified": true
  },
  {
    "county": "MANDERA",
    "constituency_name": "MANDERA NORTH",
    "office_location": "Inside Mandera North DCC's Compound",
    "landmark": "DCC Compound",
    "latitude": 3.7833,
    "longitude": 41.3833,
    "accuracy_meters": 500,
    "confidence_score": 32,
    "office_type": "CONSTITUENCY_OFFICE",
    "verified": true
  },
  {
    "county": "KERICHO",
    "constituency_name": "KIPKELION WEST",
    "office_location": "Posta Kenya Building Kipkelion",
    "landmark": "Kipkelion Post Office",
    "latitude": -0.3278,
    "longitude": 35.4639,
    "accuracy_meters": 500,
    "confidence_score": 40,
    "office_type": "CONSTITUENCY_OFFICE",
    "verified": true
  },
  {
    "county": "NAROK",
    "constituency_name": "EMURUA DIKIRR",
    "office_location": "Emurua Dikkir",
    "landmark": "Sub County Offices",
    "latitude": -1.1167,
    "longitude": 35.2,
    "accuracy_meters": 500,
    "confidence_score": 78,
    "office_type": "CONSTITUENCY_OFFICE",
    "verified": true
  },
  {
    "county": "NAKURU",
    "constituency_name": "KURESOI NORTH",
    "office_location": "Kuresoi North Sub County Offices, Kamara Division Kuresoi North Sub County Offices",
    "landmark": "Sub County Offices",
    "latitude": -0.2167,
    "longitude": 35.7667,
    "accuracy_meters": 500,
    "confidence_score": 41,
    "office_type": "CONSTITUENCY_OFFICE",
    "verified": true
  },
  {
    "county": "SIAYA",
    "constituency_name": "BONDO",
    "office_location": "Adjacent Municipal Offices, Next to",
    "landmark": "Bondo Law Courts",
    "latitude": -0.09937,
    "longitude": 34.27399,
    "accuracy_meters": 500,
    "confidence_score": 32,
    "office_type": "CONSTITUENCY_OFFICE",
    "verified": true
  },
  {
    "county": "WEST POKOT",
    "constituency_name": "SIGOR",
    "office_location": "KVDA",
    "landmark": "KVDA Offices",
    "latitude": 1.241691,
    "longitude": 35.1180545333333,
    "accuracy_meters": 500,
    "confidence_score": 82,
    "office_type": "CONSTITUENCY_OFFICE",
    "verified": true
  },
  {
    "county": "UASIN GISHU",
    "constituency_name": "TURBO",
    "office_location": "Within NCCK North headquarters, West Indies",
    "landmark": "NCCK North Headquarters",
    "latitude": 0.634569,
    "longitude": 35.04815,
    "accuracy_meters": 500,
    "confidence_score": 38,
    "office_type": "CONSTITUENCY_OFFICE",
    "verified": true
  },
  {
    "county": "TRANS-NZOIA",
    "constituency_name": "CHERANGANY",
    "office_location": "Kachibora",
    "landmark": "DCC's Office",
    "latitude": 0.94506,
    "longitude": 34.97251,
    "accuracy_meters": 500,
    "confidence_score": null,
    "office_type": "CONSTITUENCY_OFFICE",
    "verified": true
  },
  {
    "county": "NAIROBI",
    "constituency_name": "KAMUKUNJI",
    "office_location": "At DCC Hq Kamukunji",
    "landmark": "DCC Office",
    "latitude": -1.2722,
    "longitude": 36.8431,
    "accuracy_meters": 500,
    "confidence_score": 84,
    "office_type": "CONSTITUENCY_OFFICE",
    "verified": true
  },
  {
    "county": "TRANS-NZOIA",
    "constituency_name": "KIMININI",
    "office_location": "Kiminini centre",
    "landmark": "St Peters Cleavers Catholic Church",
    "latitude": 0.89259,
    "longitude": 34.92515,
    "accuracy_meters": 500,
    "confidence_score": 40,
    "office_type": "CONSTITUENCY_OFFICE",
    "verified": true
  },
  {
    "county": "KISII",
    "constituency_name": "BOMACHOGE BORABU",
    "office_location": "Kenyanya Market Centre",
    "landmark": "DCC's Office",
    "latitude": -0.7372,
    "longitude": 34.8267,
    "accuracy_meters": 500,
    "confidence_score": 37,
    "office_type": "CONSTITUENCY_OFFICE",
    "verified": true
  },
  {
    "county": "MURANG'A",
    "constituency_name": "KANDARA",
    "office_location": "Kandara Town",
    "landmark": "500m from DCC's Office",
    "latitude": -0.95736,
    "longitude": 37.11028,
    "accuracy_meters": 500,
    "confidence_score": 78,
    "office_type": "CONSTITUENCY_OFFICE",
    "verified": true
  },
  {
    "county": "NYERI",
    "constituency_name": "MATHIRA",
    "office_location": "2nd Floor Room 18, Mathira East",
    "landmark": "Karatina Law Courts",
    "latitude": -0.4631,
    "longitude": 37.0638,
    "accuracy_meters": 500,
    "confidence_score": null,
    "office_type": "CONSTITUENCY_OFFICE",
    "verified": true
  },
  {
    "county": "TANA RIVER",
    "constituency_name": "GARSEN",
    "office_location": "Garsen Town",
    "landmark": "KCB Bank",
    "latitude": -2.265551,
    "longitude": 40.10975,
    "accuracy_meters": 500,
    "confidence_score": null,
    "office_type": "CONSTITUENCY_OFFICE",
    "verified": true
  },
  {
    "county": "MIGORI",
    "constituency_name": "SUNA EAST",
    "office_location": "Migori Town",
    "landmark": "IEBC County Office",
    "latitude": -1.0581,
    "longitude": 34.4694,
    "accuracy_meters": 500,
    "confidence_score": 35,
    "office_type": "CONSTITUENCY_OFFICE",
    "verified": true
  },
  {
    "county": "KITUI",
    "constituency_name": "MWINGI NORTH",
    "office_location": "Kyuso Town",
    "landmark": "Equity Bank",
    "latitude": -0.75,
    "longitude": 38.05,
    "accuracy_meters": 500,
    "confidence_score": 78,
    "office_type": "CONSTITUENCY_OFFICE",
    "verified": true
  },
  {
    "county": "KIAMBU",
    "constituency_name": "KABETE",
    "office_location": "Kabete Sub County Government Premises.",
    "landmark": "Wangige Sub County Hospital",
    "latitude": -1.2496,
    "longitude": 36.7374,
    "accuracy_meters": 500,
    "confidence_score": 34,
    "office_type": "CONSTITUENCY_OFFICE",
    "verified": true
  },
  {
    "county": "KAKAMEGA",
    "constituency_name": "MUMIAS EAST",
    "office_location": "Moco Buildings-Shianda",
    "landmark": "Shianda Catholic Church",
    "latitude": 0.3364,
    "longitude": 34.4878,
    "accuracy_meters": 500,
    "confidence_score": 37,
    "office_type": "CONSTITUENCY_OFFICE",
    "verified": true
  },
  {
    "county": "MOMBASA",
    "constituency_name": "CHANGAMWE",
    "office_location": "At Changamwe firestation",
    "landmark": "Changamwe Fire Station",
    "latitude": -4.0348,
    "longitude": 39.6195,
    "accuracy_meters": 500,
    "confidence_score": 37,
    "office_type": "CONSTITUENCY_OFFICE",
    "verified": true
  },
  {
    "county": "TRANS-NZOIA",
    "constituency_name": "KWANZA",
    "office_location": "KFA Building kitale town",
    "landmark": "KFA Building",
    "latitude": 1.1833,
    "longitude": 35.0067,
    "accuracy_meters": 500,
    "confidence_score": 33,
    "office_type": "CONSTITUENCY_OFFICE",
    "verified": true
  },
  {
    "county": "TRANS-NZOIA",
    "constituency_name": "SABOTI",
    "office_location": "Maendeleo ya wanawake building Old Ambwere Plaza",
    "landmark": "Old Ambwere Plaza",
    "latitude": 0.93333,
    "longitude": 39.83333,
    "accuracy_meters": 500,
    "confidence_score": null,
    "office_type": "CONSTITUENCY_OFFICE",
    "verified": true
  },
  {
    "county": "ELGEYO-MARAKWET",
    "constituency_name": "MARAKWET EAST",
    "office_location": "Chesoi DCC Compound",
    "landmark": "DCC Office",
    "latitude": 0.671514433333333,
    "longitude": 35.5083757666667,
    "accuracy_meters": 500,
    "confidence_score": 82,
    "office_type": "CONSTITUENCY_OFFICE",
    "verified": true
  },
  {
    "county": "MAKUENI",
    "constituency_name": "MAKUENI",
    "office_location": "IEBC Office",
    "landmark": "Makueni Subcounty Hospital",
    "latitude": -1.7971,
    "longitude": 37.623,
    "accuracy_meters": 500,
    "confidence_score": 35,
    "office_type": "CONSTITUENCY_OFFICE",
    "verified": true
  },
  {
    "county": "KISII",
    "constituency_name": "SOUTH MUGIRANGO",
    "office_location": "Nyamarambe",
    "landmark": "DCC's Office",
    "latitude": -0.7833,
    "longitude": 34.85,
    "accuracy_meters": 500,
    "confidence_score": 50,
    "office_type": "CONSTITUENCY_OFFICE",
    "verified": true
  },
  {
    "county": "BARINGO",
    "constituency_name": "TIATY",
    "office_location": "Next To Ministry Of Education Offices-",
    "landmark": "Chemolingot",
    "latitude": 1.1,
    "longitude": 35.9833,
    "accuracy_meters": 500,
    "confidence_score": 34,
    "office_type": "CONSTITUENCY_OFFICE",
    "verified": true
  },
  {
    "county": "BUNGOMA",
    "constituency_name": "WEBUYE EAST",
    "office_location": "1st Office at DCC Compound 2nd",
    "landmark": "DCC Compound / MP Office T-Junction",
    "latitude": 0.5833,
    "longitude": 34.7667,
    "accuracy_meters": 500,
    "confidence_score": 39,
    "office_type": "CONSTITUENCY_OFFICE",
    "verified": true
  },
  {
    "county": "KERICHO",
    "constituency_name": "SIGOWET/SOIN",
    "office_location": "Soko Huru Center",
    "landmark": "Mathioyo Stadium",
    "latitude": -0.4528,
    "longitude": 35.1517,
    "accuracy_meters": 500,
    "confidence_score": 35,
    "office_type": "CONSTITUENCY_OFFICE",
    "verified": true
  },
  {
    "county": "MURANG'A",
    "constituency_name": "MATHIOYA",
    "office_location": "Kiria-Ini Town",
    "landmark": "DCC's Office",
    "latitude": -0.95736,
    "longitude": 37.11028,
    "accuracy_meters": 500,
    "confidence_score": 78,
    "office_type": "CONSTITUENCY_OFFICE",
    "verified": true
  },
  {
    "county": "KISII",
    "constituency_name": "KITUTU CHACHE NORTH",
    "office_location": "Marani Centre",
    "landmark": "Marani Sub-County Office",
    "latitude": -0.65,
    "longitude": 34.7833,
    "accuracy_meters": 500,
    "confidence_score": 41,
    "office_type": "CONSTITUENCY_OFFICE",
    "verified": true
  },
  {
    "county": "KITUI",
    "constituency_name": "MWINGI WEST",
    "office_location": "Migwani market - inside DCC Office Complex",
    "landmark": "Baraza Park",
    "latitude": -1.05,
    "longitude": 37.8833,
    "accuracy_meters": 500,
    "confidence_score": 41,
    "office_type": "CONSTITUENCY_OFFICE",
    "verified": true
  },
  {
    "county": "KILIFI",
    "constituency_name": "MALINDI",
    "office_location": "Maweni Area - Near Judo",
    "landmark": "Malindi Sub-County Hospital",
    "latitude": -3.59778,
    "longitude": 39.85108,
    "accuracy_meters": 500,
    "confidence_score": 33,
    "office_type": "CONSTITUENCY_OFFICE",
    "verified": true
  },
  {
    "county": "GARISSA",
    "constituency_name": "IJARA",
    "office_location": "Masalani Town, Next To Dc’s Office.",
    "landmark": "DC's Office",
    "latitude": -1.59517,
    "longitude": 40.51444,
    "accuracy_meters": 500,
    "confidence_score": null,
    "office_type": "CONSTITUENCY_OFFICE",
    "verified": true
  },
  {
    "county": "KISII",
    "constituency_name": "NYARIBARI MASABA",
    "office_location": "Masimba",
    "landmark": "DCC's Office",
    "latitude": -0.68174,
    "longitude": 34.76666,
    "accuracy_meters": 500,
    "confidence_score": 48,
    "office_type": "CONSTITUENCY_OFFICE",
    "verified": true
  },
  {
    "county": "NYANDARUA",
    "constituency_name": "NDARAGWA",
    "office_location": "Ndaragwa Township Next to Central Ward MCA",
    "landmark": "Ndaragwa Police Station",
    "latitude": 0.0666,
    "longitude": 36.5166,
    "accuracy_meters": 500,
    "confidence_score": 40,
    "office_type": "CONSTITUENCY_OFFICE",
    "verified": true
  },
  {
    "county": "TURKANA",
    "constituency_name": "TURKANA WEST",
    "office_location": "Old DCC's Office Kakuma",
    "landmark": "Refugees Affairs Services Offices",
    "latitude": 3.6,
    "longitude": 34.9,
    "accuracy_meters": 500,
    "confidence_score": 78,
    "office_type": "CONSTITUENCY_OFFICE",
    "verified": true
  },
  {
    "county": "NAIROBI",
    "constituency_name": "EMBAKASI WEST",
    "office_location": "Tena White House",
    "landmark": "Shell Petrol Station, Manyanja Road",
    "latitude": -1.3045,
    "longitude": 36.8846,
    "accuracy_meters": 500,
    "confidence_score": 42,
    "office_type": "CONSTITUENCY_OFFICE",
    "verified": true
  },
  {
    "county": "KIAMBU",
    "constituency_name": "GITHUNGURI",
    "office_location": "DCC Compound",
    "landmark": "DCC Offices",
    "latitude": -1.0568,
    "longitude": 36.7717,
    "accuracy_meters": 500,
    "confidence_score": 78,
    "office_type": "CONSTITUENCY_OFFICE",
    "verified": true
  },
  {
    "county": "KAKAMEGA",
    "constituency_name": "LIKUYANI",
    "office_location": "At PAG Kongoni Church Compound",
    "landmark": "Next to Likuyani Sub-County Offices",
    "latitude": 0.27173,
    "longitude": 34.77254,
    "accuracy_meters": 500,
    "confidence_score": null,
    "office_type": "CONSTITUENCY_OFFICE",
    "verified": true
  },
  {
    "county": "KIAMBU",
    "constituency_name": "LIMURU",
    "office_location": "Directorate Of Public Works-Limuru",
    "landmark": "Limuru Law Courts",
    "latitude": -1.1062,
    "longitude": 36.6419,
    "accuracy_meters": 500,
    "confidence_score": null,
    "office_type": "CONSTITUENCY_OFFICE",
    "verified": true
  },
  {
    "county": "KAKAMEGA",
    "constituency_name": "LUGARI",
    "office_location": "Lumakanda Centre",
    "landmark": "Lumakanda PAG Church",
    "latitude": 0.3964,
    "longitude": 34.9136,
    "accuracy_meters": 500,
    "confidence_score": 33,
    "office_type": "CONSTITUENCY_OFFICE",
    "verified": true
  },
  {
    "county": "KISII",
    "constituency_name": "KITUTU CHACHE SOUTH",
    "office_location": "Kisii town",
    "landmark": "County Commissioner's Office",
    "latitude": -0.6833,
    "longitude": 34.7667,
    "accuracy_meters": 500,
    "confidence_score": 85,
    "office_type": "CONSTITUENCY_OFFICE",
    "verified": true
  },
  {
    "county": "NAIROBI",
    "constituency_name": "MATHARE",
    "office_location": "Mathare DCC Compound",
    "landmark": "DCC Office",
    "latitude": -1.2562,
    "longitude": 36.8568,
    "accuracy_meters": 500,
    "confidence_score": 78,
    "office_type": "CONSTITUENCY_OFFICE",
    "verified": true
  },
  {
    "county": "LAMU",
    "constituency_name": "LAMU EAST",
    "office_location": "Batuli Mudh-hir Haji Building - Faza",
    "landmark": "Post Office, Faza",
    "latitude": -2.2708,
    "longitude": 40.9022,
    "accuracy_meters": 500,
    "confidence_score": 82,
    "office_type": "CONSTITUENCY_OFFICE",
    "verified": true
  },
  {
    "county": "SAMBURU",
    "constituency_name": "SAMBURU EAST",
    "office_location": "Wambaa Town",
    "landmark": "Wamba Parish",
    "latitude": 1.03358,
    "longitude": 37.31021,
    "accuracy_meters": 500,
    "confidence_score": 32,
    "office_type": "CONSTITUENCY_OFFICE",
    "verified": true
  },
  {
    "county": "KITUI",
    "constituency_name": "KITUI CENTRAL",
    "office_location": "Along DCC - Kitui Hospital Road, opposite",
    "landmark": "Kafoca Hotel",
    "latitude": -1.3651,
    "longitude": 38.0109,
    "accuracy_meters": 500,
    "confidence_score": 78,
    "office_type": "CONSTITUENCY_OFFICE",
    "verified": true
  },
  {
    "county": "BOMET",
    "constituency_name": "KONOIN",
    "office_location": "Mogogsiek",
    "landmark": "DCC Office Konoin Subcounty",
    "latitude": -0.6150365,
    "longitude": 35.2633704,
    "accuracy_meters": 500,
    "confidence_score": 82,
    "office_type": "CONSTITUENCY_OFFICE",
    "verified": true
  },
  {
    "county": "NAIROBI",
    "constituency_name": "MAKADARA",
    "office_location": "Makadara DCC Compound",
    "landmark": "CIPU Office Makadara",
    "latitude": -1.2913,
    "longitude": 36.8573,
    "accuracy_meters": 500,
    "confidence_score": 84,
    "office_type": "CONSTITUENCY_OFFICE",
    "verified": true
  },
  {
    "county": "NAKURU",
    "constituency_name": "MOLO",
    "office_location": "Dcc's Compound - Molo Town",
    "landmark": "DC's Office",
    "latitude": -0.25,
    "longitude": 35.7333,
    "accuracy_meters": 500,
    "confidence_score": null,
    "office_type": "CONSTITUENCY_OFFICE",
    "verified": true
  },
  {
    "county": "MERU",
    "constituency_name": "SOUTH IMENTI",
    "office_location": "Nkubu",
    "landmark": "Consolata Hospital Nkubu",
    "latitude": -0.05,
    "longitude": 37.65,
    "accuracy_meters": 500,
    "confidence_score": 40,
    "office_type": "CONSTITUENCY_OFFICE",
    "verified": true
  },
  {
    "county": "TURKANA",
    "constituency_name": "TURKANA NORTH",
    "office_location": "DCC's Compound Lokitaung'",
    "landmark": "DCC's Office",
    "latitude": 3.5833,
    "longitude": 35.8667,
    "accuracy_meters": 500,
    "confidence_score": 82,
    "office_type": "CONSTITUENCY_OFFICE",
    "verified": true
  },
  {
    "county": "HOMA BAY",
    "constituency_name": "KASIPUL",
    "office_location": "Within Karachuonyo South DCC Compound at Kosele",
    "landmark": "DCC Compound",
    "latitude": -0.55,
    "longitude": 34.6333,
    "accuracy_meters": 500,
    "confidence_score": 78,
    "office_type": "CONSTITUENCY_OFFICE",
    "verified": true
  },
  {
    "county": "MOMBASA",
    "constituency_name": "NYALI",
    "office_location": "Chiefs office Kongowea",
    "landmark": "DCC Nyali's Office",
    "latitude": -4.0375,
    "longitude": 39.7049,
    "accuracy_meters": 500,
    "confidence_score": null,
    "office_type": "CONSTITUENCY_OFFICE",
    "verified": true
  },
  {
    "county": "GARISSA",
    "constituency_name": "GARISSA TOWNSHIP",
    "office_location": "Off Lamu Road, Behind Ministry Of Water Garage",
    "landmark": "Ministry of Water Garage",
    "latitude": -0.46271,
    "longitude": 39.63904,
    "accuracy_meters": 500,
    "confidence_score": 32,
    "office_type": "CONSTITUENCY_OFFICE",
    "verified": true
  },
  {
    "county": "MERU",
    "constituency_name": "NORTH IMENTI",
    "office_location": "Meru Town",
    "landmark": "Meru Huduma Centre",
    "latitude": 0.1,
    "longitude": 37.65,
    "accuracy_meters": 500,
    "confidence_score": 35,
    "office_type": "CONSTITUENCY_OFFICE",
    "verified": true
  },
  {
    "county": "KILIFI",
    "constituency_name": "RABAI",
    "office_location": "Shikaadabu",
    "landmark": "CDF Office / Shikaadabu Dispensary",
    "latitude": -3.91667,
    "longitude": 39.554507,
    "accuracy_meters": 500,
    "confidence_score": null,
    "office_type": "CONSTITUENCY_OFFICE",
    "verified": true
  },
  {
    "county": "MACHAKOS",
    "constituency_name": "MWALA",
    "office_location": "Makutano ya Mwala Shopping centre",
    "landmark": "Makutano Police Patrol Base",
    "latitude": -1.58716,
    "longitude": 37.23931,
    "accuracy_meters": 500,
    "confidence_score": 78,
    "office_type": "CONSTITUENCY_OFFICE",
    "verified": true
  },
  {
    "county": "BARINGO",
    "constituency_name": "BARINGO SOUTH",
    "office_location": "Deputy County Commissioner’s",
    "landmark": "District HQ",
    "latitude": 0.2,
    "longitude": 35.7333,
    "accuracy_meters": 500,
    "confidence_score": 46,
    "office_type": "CONSTITUENCY_OFFICE",
    "verified": true
  },
  {
    "county": "NAIROBI",
    "constituency_name": "DAGORETTI NORTH",
    "office_location": "IEBC Office Lavington Kilimani Area, Groundfloor of Jibu (Lavington Franchise) Water Refilling Building",
    "landmark": "Changamwe Fire Station",
    "latitude": -1.2607,
    "longitude": 36.7575,
    "accuracy_meters": 500,
    "confidence_score": 57,
    "office_type": "CONSTITUENCY_OFFICE",
    "verified": true
  },
  {
    "county": "GARISSA",
    "constituency_name": "FAFI",
    "office_location": "Next To Dc’s Office",
    "landmark": "DC's Office",
    "latitude": -0.42231,
    "longitude": 40.21347,
    "accuracy_meters": 500,
    "confidence_score": null,
    "office_type": "CONSTITUENCY_OFFICE",
    "verified": true
  },
  {
    "county": "KERICHO",
    "constituency_name": "BELGUT",
    "office_location": "Rev. Temuga Plaza",
    "landmark": "Opposite DCC Office",
    "latitude": -0.4086,
    "longitude": 35.3686,
    "accuracy_meters": 500,
    "confidence_score": null,
    "office_type": "CONSTITUENCY_OFFICE",
    "verified": true
  },
  {
    "county": "NYERI",
    "constituency_name": "MUKURWEINI",
    "office_location": "IEBC Office",
    "landmark": "Near Mukurwe-ini Sub County Hospital",
    "latitude": -0.5636,
    "longitude": 37.007,
    "accuracy_meters": 500,
    "confidence_score": 42,
    "office_type": "CONSTITUENCY_OFFICE",
    "verified": true
  },
  {
    "county": "MOMBASA",
    "constituency_name": "LIKONI",
    "office_location": "Shika Adabu",
    "landmark": "Shika Adabu Chiefs Office",
    "latitude": -4.0777,
    "longitude": 39.6633,
    "accuracy_meters": 500,
    "confidence_score": null,
    "office_type": "CONSTITUENCY_OFFICE",
    "verified": true
  },
  {
    "county": "ELGEYO-MARAKWET",
    "constituency_name": "KEIYO NORTH",
    "office_location": "IEBC",
    "landmark": "Governor's Office",
    "latitude": 0.671834533333333,
    "longitude": 35.5102430333333,
    "accuracy_meters": 500,
    "confidence_score": 82,
    "office_type": "CONSTITUENCY_OFFICE",
    "verified": true
  },
  {
    "county": "WEST POKOT",
    "constituency_name": "KAPENGURIA",
    "office_location": "Deputy Commissioner’s Compound",
    "landmark": "DCC Offices",
    "latitude": 1.2388,
    "longitude": 35.11194,
    "accuracy_meters": 500,
    "confidence_score": 78,
    "office_type": "CONSTITUENCY_OFFICE",
    "verified": true
  },
  {
    "county": "EMBU",
    "constituency_name": "MBEERE NORTH",
    "office_location": "DCC Compound Mbeere North Subcounty",
    "landmark": "DCC Offices",
    "latitude": -0.5387,
    "longitude": 37.4577,
    "accuracy_meters": 500,
    "confidence_score": null,
    "office_type": "CONSTITUENCY_OFFICE",
    "verified": true
  },
  {
    "county": "TURKANA",
    "constituency_name": "TURKANA EAST",
    "office_location": "DCC's Compound Lokori",
    "landmark": "DCC's Office",
    "latitude": 2.2,
    "longitude": 36.1833,
    "accuracy_meters": 500,
    "confidence_score": 78,
    "office_type": "CONSTITUENCY_OFFICE",
    "verified": true
  },
  {
    "county": "KAKAMEGA",
    "constituency_name": "LURAMBI",
    "office_location": "Post Office",
    "landmark": "Huduma Centre",
    "latitude": 0.2833,
    "longitude": 34.7567,
    "accuracy_meters": 500,
    "confidence_score": null,
    "office_type": "CONSTITUENCY_OFFICE",
    "verified": true
  },
  {
    "county": "WAJIR",
    "constituency_name": "WAJIR WEST",
    "office_location": "Giriftu",
    "landmark": "DCC's Office",
    "latitude": 1.75213,
    "longitude": 40.05646,
    "accuracy_meters": 500,
    "confidence_score": 78,
    "office_type": "CONSTITUENCY_OFFICE",
    "verified": true
  },
  {
    "county": "MANDERA",
    "constituency_name": "BANISSA",
    "office_location": "Banissa Town, Along Banissa-Rhamu Road",
    "landmark": "Next to Malkamari Hotel",
    "latitude": 3.2167,
    "longitude": 40.3667,
    "accuracy_meters": 500,
    "confidence_score": null,
    "office_type": "CONSTITUENCY_OFFICE",
    "verified": true
  },
  {
    "county": "KERICHO",
    "constituency_name": "KIPKELION EAST",
    "office_location": "Within Londian Post Office",
    "landmark": "Londiani Post Office",
    "latitude": -0.3511,
    "longitude": 35.4222,
    "accuracy_meters": 500,
    "confidence_score": null,
    "office_type": "CONSTITUENCY_OFFICE",
    "verified": true
  },
  {
    "county": "KAJIADO",
    "constituency_name": "KAJIADO EAST",
    "office_location": "Isinya Multi-Purpose",
    "landmark": "Moi Girls High School Isinya",
    "latitude": -1.694393,
    "longitude": 36.8459728,
    "accuracy_meters": 500,
    "confidence_score": 78,
    "office_type": "CONSTITUENCY_OFFICE",
    "verified": true
  },
  {
    "county": "GARISSA",
    "constituency_name": "LAGDERA",
    "office_location": "Modogashe Town, Opposite Police Station",
    "landmark": "Opposite Police Station",
    "latitude": -0.37918,
    "longitude": 39.71249,
    "accuracy_meters": 500,
    "confidence_score": 78,
    "office_type": "CONSTITUENCY_OFFICE",
    "verified": true
  },
  {
    "county": "SAMBURU",
    "constituency_name": "SAMBURU NORTH",
    "office_location": "Baragoi Town",
    "landmark": "DCC Office",
    "latitude": 0.86885,
    "longitude": 36.80617,
    "accuracy_meters": 500,
    "confidence_score": 78,
    "office_type": "CONSTITUENCY_OFFICE",
    "verified": true
  },
  {
    "county": "MARSABIT",
    "constituency_name": "SAKU",
    "office_location": "ACK Saku Offices Building,",
    "landmark": "St. Peter Cathedral",
    "latitude": 2.32971,
    "longitude": 37.98822,
    "accuracy_meters": 500,
    "confidence_score": null,
    "office_type": "CONSTITUENCY_OFFICE",
    "verified": true
  },
  {
    "county": "MACHAKOS",
    "constituency_name": "KATHIANI",
    "office_location": "DCCs Office block",
    "landmark": "DCC's Office",
    "latitude": -1.53188,
    "longitude": 37.2623245,
    "accuracy_meters": 500,
    "confidence_score": 82,
    "office_type": "CONSTITUENCY_OFFICE",
    "verified": true
  },
  {
    "county": "MANDERA",
    "constituency_name": "LAFEY",
    "office_location": "Lafey Town",
    "landmark": "Next to Lafey Primary School",
    "latitude": 2.85,
    "longitude": 40.4,
    "accuracy_meters": 500,
    "confidence_score": null,
    "office_type": "CONSTITUENCY_OFFICE",
    "verified": true
  },
  {
    "county": "MERU",
    "constituency_name": "IGEMBE SOUTH",
    "office_location": "Maua Town",
    "landmark": "Maua Police Station",
    "latitude": 0.15,
    "longitude": 37.7333,
    "accuracy_meters": 500,
    "confidence_score": null,
    "office_type": "CONSTITUENCY_OFFICE",
    "verified": true
  },
  {
    "county": "KAKAMEGA",
    "constituency_name": "SHINYALU",
    "office_location": "Shinyalu Market",
    "landmark": "St. Aquinas Teachers College",
    "latitude": 0.2167,
    "longitude": 34.7167,
    "accuracy_meters": 500,
    "confidence_score": null,
    "office_type": "CONSTITUENCY_OFFICE",
    "verified": true
  },
  {
    "county": "BUSIA",
    "constituency_name": "FUNYULA",
    "office_location": "Funyula market",
    "landmark": "Moody Awori Primary School",
    "latitude": 0.27896,
    "longitude": 34.11869,
    "accuracy_meters": 500,
    "confidence_score": null,
    "office_type": "CONSTITUENCY_OFFICE",
    "verified": true
  },
  {
    "county": "MACHAKOS",
    "constituency_name": "KANGUNDO",
    "office_location": "Ministry Of Works Bulding,Opposite Kangundo",
    "landmark": "Opposite Kangundo General Hospital",
    "latitude": -1.2683841,
    "longitude": 37.3251141,
    "accuracy_meters": 500,
    "confidence_score": 82,
    "office_type": "CONSTITUENCY_OFFICE",
    "verified": true
  },
  {
    "county": "MURANG'A",
    "constituency_name": "MARAGWA",
    "office_location": "Makuyu",
    "landmark": "ACC's Office, Makuyu",
    "latitude": -0.91846,
    "longitude": 37.21482,
    "accuracy_meters": 500,
    "confidence_score": 30,
    "office_type": "CONSTITUENCY_OFFICE",
    "verified": true
  },
  {
    "county": "KAJIADO",
    "constituency_name": "KAJIADO CENTRAL",
    "office_location": "Ack Tenebo House",
    "landmark": "Total Petrol Station",
    "latitude": -1.8419404,
    "longitude": 36.7892723,
    "accuracy_meters": 500,
    "confidence_score": 30,
    "office_type": "CONSTITUENCY_OFFICE",
    "verified": true
  },
  {
    "county": "KITUI",
    "constituency_name": "KITUI EAST",
    "office_location": "Zombe Town",
    "landmark": "Zombe Police Station",
    "latitude": -1.5833,
    "longitude": 38.3333,
    "accuracy_meters": 500,
    "confidence_score": 76,
    "office_type": "CONSTITUENCY_OFFICE",
    "verified": true
  },
  {
    "county": "MARSABIT",
    "constituency_name": "LAISAMIS",
    "office_location": "DCC Office Laisamis",
    "landmark": "DCC Office",
    "latitude": 1.5932,
    "longitude": 37.80595,
    "accuracy_meters": 500,
    "confidence_score": 36,
    "office_type": "CONSTITUENCY_OFFICE",
    "verified": true
  },
  {
    "county": "BUSIA",
    "constituency_name": "MATAYOS",
    "office_location": "Assistant County Commissioner's com-",
    "landmark": "ACC's Office",
    "latitude": 0.3625,
    "longitude": 34.1655,
    "accuracy_meters": 500,
    "confidence_score": null,
    "office_type": "CONSTITUENCY_OFFICE",
    "verified": true
  },
  {
    "county": "HOMA BAY",
    "constituency_name": "SUBA",
    "office_location": "IEBC Office",
    "landmark": "Along Kiabuya-Magunga-Sindo Road",
    "latitude": -0.6589,
    "longitude": 34.1692,
    "accuracy_meters": 500,
    "confidence_score": 82,
    "office_type": "CONSTITUENCY_OFFICE",
    "verified": true
  },
  {
    "county": "MERU",
    "constituency_name": "IGEMBE CENTRAL",
    "office_location": "Kangeta",
    "landmark": "DCC Office",
    "latitude": 0.2,
    "longitude": 37.8,
    "accuracy_meters": 500,
    "confidence_score": null,
    "office_type": "CONSTITUENCY_OFFICE",
    "verified": true
  },
  {
    "county": "VIHIGA",
    "constituency_name": "LUANDA",
    "office_location": "Luanda Centre",
    "landmark": "Bunyore Girls High School",
    "latitude": -0.486665,
    "longitude": 34.28155,
    "accuracy_meters": 500,
    "confidence_score": null,
    "office_type": "CONSTITUENCY_OFFICE",
    "verified": true
  },
  {
    "county": "MURANG'A",
    "constituency_name": "KIHARU",
    "office_location": "Murang’a -",
    "landmark": "Rubis Petrol Station, Mukuyu",
    "latitude": -0.718641,
    "longitude": 37.13987,
    "accuracy_meters": 500,
    "confidence_score": null,
    "office_type": "CONSTITUENCY_OFFICE",
    "verified": true
  },
  {
    "county": "BUSIA",
    "constituency_name": "BUTULA",
    "office_location": "DCC's Compound",
    "landmark": "Butula Police Station",
    "latitude": 0.3235338,
    "longitude": 34.2609222,
    "accuracy_meters": 500,
    "confidence_score": 82,
    "office_type": "CONSTITUENCY_OFFICE",
    "verified": true
  },
  {
    "county": "BUSIA",
    "constituency_name": "NAMBALE",
    "office_location": "DCC's Compound",
    "landmark": "DCC's Building",
    "latitude": 0.40692,
    "longitude": 34.19464,
    "accuracy_meters": 500,
    "confidence_score": null,
    "office_type": "CONSTITUENCY_OFFICE",
    "verified": true
  },
  {
    "county": "MACHAKOS",
    "constituency_name": "MASINGA",
    "office_location": "Masinga Town Opposite MULKAS petrol",
    "landmark": "Opposite MULKAS Petrol Station",
    "latitude": -0.9762245,
    "longitude": 37.6042412,
    "accuracy_meters": 500,
    "confidence_score": 82,
    "office_type": "CONSTITUENCY_OFFICE",
    "verified": true
  },
  {
    "county": "NYANDARUA",
    "constituency_name": "KINANGOP",
    "office_location": "Elacy Trading Center First Floor",
    "landmark": "North Kinangop Subcounty HQ",
    "latitude": -0.2398,
    "longitude": 36.28911,
    "accuracy_meters": 500,
    "confidence_score": null,
    "office_type": "CONSTITUENCY_OFFICE",
    "verified": true
  },
  {
    "county": "KAKAMEGA",
    "constituency_name": "BUTERE",
    "office_location": "Butere DCC Compound Next to",
    "landmark": "Deputy County Commissioner's Office",
    "latitude": 0.2044,
    "longitude": 34.5,
    "accuracy_meters": 500,
    "confidence_score": 37,
    "office_type": "CONSTITUENCY_OFFICE",
    "verified": true
  },
  {
    "county": "NAIROBI",
    "constituency_name": "LANGATA",
    "office_location": "Langata Subcounty Headquarters - NG-CDF / DCC Offices",
    "landmark": "Five Star Road",
    "latitude": -1.3173978,
    "longitude": 36.8170593,
    "accuracy_meters": 500,
    "confidence_score": 78,
    "office_type": "CONSTITUENCY_OFFICE",
    "verified": true
  },
  {
    "county": "BUSIA",
    "constituency_name": "TESO NORTH",
    "office_location": "DCC's Compound",
    "landmark": "Law Courts",
    "latitude": 0.4625379,
    "longitude": 34.1074834,
    "accuracy_meters": 500,
    "confidence_score": 68,
    "office_type": "CONSTITUENCY_OFFICE",
    "verified": true
  },
  {
    "county": "MACHAKOS",
    "constituency_name": "YATTA",
    "office_location": "National Cereals and Produce Board",
    "landmark": "NCPB Kithimani",
    "latitude": -1.58716,
    "longitude": 37.23931,
    "accuracy_meters": 500,
    "confidence_score": 78,
    "office_type": "CONSTITUENCY_OFFICE",
    "verified": true
  },
  {
    "county": "HOMA BAY",
    "constituency_name": "RANGWE",
    "office_location": "Within New Rangwe DCC's Complex aLong Oyugis -",
    "landmark": "Rangwe Dispensary",
    "latitude": -0.5167,
    "longitude": 34.5833,
    "accuracy_meters": 500,
    "confidence_score": 21,
    "office_type": "CONSTITUENCY_OFFICE",
    "verified": true
  },
  {
    "county": "KIAMBU",
    "constituency_name": "GATUNDU NORTH",
    "office_location": "Kamwangi",
    "landmark": "DCC Office Kamwangi",
    "latitude": -0.9521,
    "longitude": 36.9137,
    "accuracy_meters": 500,
    "confidence_score": null,
    "office_type": "CONSTITUENCY_OFFICE",
    "verified": true
  },
  {
    "county": "UASIN GISHU",
    "constituency_name": "KESSES",
    "office_location": "Jamboni Complex Near DCC’s Office",
    "landmark": "Moi University Law School",
    "latitude": 0.55949,
    "longitude": 35.35014,
    "accuracy_meters": 500,
    "confidence_score": null,
    "office_type": "CONSTITUENCY_OFFICE",
    "verified": true
  },
  {
    "county": "MIGORI",
    "constituency_name": "SUNA WEST",
    "office_location": "Migori Town",
    "landmark": "NCPB / Namba Junction",
    "latitude": -1.0833,
    "longitude": 34.4167,
    "accuracy_meters": 500,
    "confidence_score": null,
    "office_type": "CONSTITUENCY_OFFICE",
    "verified": true
  },
  {
    "county": "BARINGO",
    "constituency_name": "ELDAMA RAVINE",
    "office_location": "Sub County Commissioner’s",
    "landmark": "Law Courts",
    "latitude": 0.05,
    "longitude": 35.7167,
    "accuracy_meters": 500,
    "confidence_score": null,
    "office_type": "CONSTITUENCY_OFFICE",
    "verified": true
  },
  {
    "county": "SIAYA",
    "constituency_name": "UGUNJA",
    "office_location": "Along Savana - Ambira Hospital Road Savana Hotel",
    "landmark": "Savana Hotel",
    "latitude": 0.18333,
    "longitude": 34.3,
    "accuracy_meters": 500,
    "confidence_score": null,
    "office_type": "CONSTITUENCY_OFFICE",
    "verified": true
  },
  {
    "county": "NAIROBI",
    "constituency_name": "KIBRA",
    "office_location": "Kibra DC",
    "landmark": "Adjacent to Huduma Centre",
    "latitude": -1.3063263,
    "longitude": 36.787539,
    "accuracy_meters": 500,
    "confidence_score": 78,
    "office_type": "CONSTITUENCY_OFFICE",
    "verified": true
  },
  {
    "county": "MIGORI",
    "constituency_name": "KURIA WEST",
    "office_location": "Kehancha Town",
    "landmark": "Kehancha Law Courts",
    "latitude": -1.0833,
    "longitude": 34.5333,
    "accuracy_meters": 500,
    "confidence_score": null,
    "office_type": "CONSTITUENCY_OFFICE",
    "verified": true
  },
  {
    "county": "UASIN GISHU",
    "constituency_name": "MOIBEN",
    "office_location": "Kimumu Ward Administrative Offices in Ainabtich, Kimumu Ward Administrative Offices",
    "landmark": "Kimumu Ward Admin Offices",
    "latitude": 0.8166,
    "longitude": 35.3833,
    "accuracy_meters": 500,
    "confidence_score": 38,
    "office_type": "CONSTITUENCY_OFFICE",
    "verified": true
  },
  {
    "county": "KIAMBU",
    "constituency_name": "LARI",
    "office_location": "Along Nairobi - Nakuru Highway, Within Ki-",
    "landmark": "Kimende Town",
    "latitude": -1.0916,
    "longitude": 36.6236,
    "accuracy_meters": 500,
    "confidence_score": null,
    "office_type": "CONSTITUENCY_OFFICE",
    "verified": true
  },
  {
    "county": "KIAMBU",
    "constituency_name": "KIAMBAA",
    "office_location": "Kiambaa Subcounty DCC Office Compoud",
    "landmark": "Kiambaa Subcounty DCC Building",
    "latitude": -1.1663681,
    "longitude": 36.8246294,
    "accuracy_meters": 500,
    "confidence_score": 82,
    "office_type": "CONSTITUENCY_OFFICE",
    "verified": true
  },
  {
    "county": "KIAMBU",
    "constituency_name": "GATUNDU SOUTH",
    "office_location": "DCC Compound",
    "landmark": "Gatundu Level 5 Hospital",
    "latitude": -1.0185,
    "longitude": 36.9058,
    "accuracy_meters": 500,
    "confidence_score": 82,
    "office_type": "CONSTITUENCY_OFFICE",
    "verified": true
  },
  {
    "county": "KIAMBU",
    "constituency_name": "KIKUYU",
    "office_location": "Kikuyu Town",
    "landmark": "K-Unity Bank",
    "latitude": -1.2443,
    "longitude": 36.6628,
    "accuracy_meters": 500,
    "confidence_score": null,
    "office_type": "CONSTITUENCY_OFFICE",
    "verified": true
  },
  {
    "county": "NAIROBI",
    "constituency_name": "STAREHE",
    "office_location": "Nairobi-Central",
    "landmark": "Opposite Technical University of Kenya",
    "latitude": -1.2864,
    "longitude": 36.8222,
    "accuracy_meters": 500,
    "confidence_score": 54,
    "office_type": "CONSTITUENCY_OFFICE",
    "verified": true
  },
  {
    "county": "NAKURU",
    "constituency_name": "NAIVASHA",
    "office_location": "Dcc's Compound - Near Naivasha Police Station",
    "landmark": "Naivasha Police Station",
    "latitude": -0.7122,
    "longitude": 36.4319,
    "accuracy_meters": 500,
    "confidence_score": 35,
    "office_type": "CONSTITUENCY_OFFICE",
    "verified": true
  },
  {
    "county": "KITUI",
    "constituency_name": "KITUI SOUTH",
    "office_location": "Ikutha Town",
    "landmark": "Opposite Registry Office",
    "latitude": -2,
    "longitude": 38.15,
    "accuracy_meters": 500,
    "confidence_score": null,
    "office_type": "CONSTITUENCY_OFFICE",
    "verified": true
  },
  {
    "county": "SIAYA",
    "constituency_name": "RARIEDA",
    "office_location": "Kalandini Market Centre - Within",
    "landmark": "Kalandini Market",
    "latitude": -0.200821,
    "longitude": 34.3386,
    "accuracy_meters": 500,
    "confidence_score": null,
    "office_type": "CONSTITUENCY_OFFICE",
    "verified": true
  },
  {
    "county": "KAKAMEGA",
    "constituency_name": "NAVAKHOLO",
    "office_location": "Opposite Dowa Filling Station along",
    "landmark": "Dowa Filling Station",
    "latitude": 0.3556,
    "longitude": 34.6944,
    "accuracy_meters": 500,
    "confidence_score": null,
    "office_type": "CONSTITUENCY_OFFICE",
    "verified": true
  },
  {
    "county": "KILIFI",
    "constituency_name": "MAGARINI",
    "office_location": "Near Mwembe Resort",
    "landmark": "Mwembe Resort",
    "latitude": -2.913972,
    "longitude": 40.08333,
    "accuracy_meters": 500,
    "confidence_score": null,
    "office_type": "CONSTITUENCY_OFFICE",
    "verified": true
  },
  {
    "county": "MOMBASA",
    "constituency_name": null,
    "office_location": "IEBC County Offices Mombasa Offices",
    "landmark": "Along Bokole Drive, Hse 405",
    "latitude": -4.0742984,
    "longitude": 39.671101,
    "accuracy_meters": 10,
    "confidence_score": null,
    "office_type": "CONSTITUENCY_OFFICE",
    "verified": true
  },
  {
    "county": "NYANDARUA",
    "constituency_name": "OL JOROK",
    "office_location": "Nyandarua West Subcounty Headquaters",
    "landmark": "Nyandarua West Subcounty HQ",
    "latitude": -0.274915,
    "longitude": 36.377233,
    "accuracy_meters": 500,
    "confidence_score": 37,
    "office_type": "CONSTITUENCY_OFFICE",
    "verified": true
  },
  {
    "county": "NAIROBI",
    "constituency_name": "DAGORETTI SOUTH",
    "office_location": "Maisha Poa Centre",
    "landmark": "DCC Office Dagoretti South",
    "latitude": -1.2985,
    "longitude": 36.7473,
    "accuracy_meters": 500,
    "confidence_score": 78,
    "office_type": "CONSTITUENCY_OFFICE",
    "verified": true
  },
  {
    "county": "KILIFI",
    "constituency_name": "KILIFI NORTH",
    "office_location": "Next To Huduma Centre Kilifi",
    "landmark": "Kilifi Bridge",
    "latitude": -3.6337024,
    "longitude": 39.8498467,
    "accuracy_meters": 500,
    "confidence_score": 64,
    "office_type": "CONSTITUENCY_OFFICE",
    "verified": true
  },
  {
    "county": "KISUMU",
    "constituency_name": "MUHORONI",
    "office_location": "Awasi Opposite Pawtenge Primary",
    "landmark": "Chemelil Sugar Belt Union",
    "latitude": -0.1716105,
    "longitude": 35.2626965,
    "accuracy_meters": 500,
    "confidence_score": 82,
    "office_type": "CONSTITUENCY_OFFICE",
    "verified": true
  },
  {
    "county": "KIAMBU",
    "constituency_name": "KIAMBU",
    "office_location": "Kiambaa Subcounty DCC Office Compoud",
    "landmark": "National Bank",
    "latitude": -1.1714,
    "longitude": 36.8357,
    "accuracy_meters": 500,
    "confidence_score": 48,
    "office_type": "CONSTITUENCY_OFFICE",
    "verified": true
  },
  {
    "county": "UASIN GISHU",
    "constituency_name": "AINABKOI",
    "office_location": "Adjacent To Eldoret East District Hqs, Off",
    "landmark": "Eldoret East District HQ",
    "latitude": 0.5143189,
    "longitude": 35.2697336,
    "accuracy_meters": 500,
    "confidence_score": 82,
    "office_type": "CONSTITUENCY_OFFICE",
    "verified": true
  },
  {
    "county": "NAKURU",
    "constituency_name": "SUBUKIA",
    "office_location": "Behind top care hospital",
    "landmark": "Subukia-Nakuru Highway",
    "latitude": -0.0667,
    "longitude": 36.15,
    "accuracy_meters": 500,
    "confidence_score": 36,
    "office_type": "CONSTITUENCY_OFFICE",
    "verified": true
  },
  {
    "county": "NANDI",
    "constituency_name": "NANDI HILLS",
    "office_location": "Nandi Hills Town, Ministry of Public Works",
    "landmark": "Nandi Water Supply",
    "latitude": 0.10411,
    "longitude": 35.18426,
    "accuracy_meters": 500,
    "confidence_score": 20,
    "office_type": "CONSTITUENCY_OFFICE",
    "verified": true
  },
  {
    "county": "KWALE",
    "constituency_name": "LUNGA LUNGA",
    "office_location": "Mbuyuni Area Next to Rafiki Yetu Building",
    "landmark": "Mnarani Communication Mast",
    "latitude": -4.47228,
    "longitude": 39.19269,
    "accuracy_meters": 500,
    "confidence_score": null,
    "office_type": "CONSTITUENCY_OFFICE",
    "verified": true
  },
  {
    "county": "NAROK",
    "constituency_name": "NAROK WEST",
    "office_location": "Ngoswani Centre",
    "landmark": "Drilled Water Solar Powerpoint",
    "latitude": -1.3333,
    "longitude": 35.3333,
    "accuracy_meters": 500,
    "confidence_score": 32,
    "office_type": "CONSTITUENCY_OFFICE",
    "verified": true
  },
  {
    "county": "TANA RIVER",
    "constituency_name": "GALOLE",
    "office_location": "Hola Town",
    "landmark": "Kenya Medical Training",
    "latitude": -1.49755304760694,
    "longitude": 40.0344797214203,
    "accuracy_meters": 500,
    "confidence_score": 35,
    "office_type": "CONSTITUENCY_OFFICE",
    "verified": true
  },
  {
    "county": "LAIKIPIA",
    "constituency_name": "LAIKIPIA NORTH",
    "office_location": "Doldol Catholic Parish Compound",
    "landmark": "Doldol Catholic Church",
    "latitude": 0.33333,
    "longitude": 36.76667,
    "accuracy_meters": 500,
    "confidence_score": 51,
    "office_type": "CONSTITUENCY_OFFICE",
    "verified": true
  },
  {
    "county": "BUNGOMA",
    "constituency_name": "KABUCHAI",
    "office_location": "Behind Kabuchai Cdf Compound",
    "landmark": "Along Kanduyi-Chwele Road",
    "latitude": 0.6167,
    "longitude": 34.55,
    "accuracy_meters": 500,
    "confidence_score": null,
    "office_type": "CONSTITUENCY_OFFICE",
    "verified": true
  },
  {
    "county": "VIHIGA",
    "constituency_name": "EMUHAYA",
    "office_location": "Esibuye Centre",
    "landmark": "Bunyore Medical Hospital",
    "latitude": 0.06642,
    "longitude": 34.72083,
    "accuracy_meters": 500,
    "confidence_score": 78,
    "office_type": "CONSTITUENCY_OFFICE",
    "verified": true
  },
  {
    "county": "MANDERA",
    "constituency_name": "MANDERA WEST",
    "office_location": "Opposite Takaba Primary Main Gate",
    "landmark": "Takaba Primary School",
    "latitude": 3.3333,
    "longitude": 40.7833,
    "accuracy_meters": 500,
    "confidence_score": null,
    "office_type": "CONSTITUENCY_OFFICE",
    "verified": true
  },
  {
    "county": "SIAYA",
    "constituency_name": "ALEGO USONGA",
    "office_location": "Siaya Town- Within County",
    "landmark": "County Commissioner's Office",
    "latitude": 0.0572662,
    "longitude": 34.2887836,
    "accuracy_meters": 500,
    "confidence_score": null,
    "office_type": "CONSTITUENCY_OFFICE",
    "verified": true
  },
  {
    "county": "KILIFI",
    "constituency_name": "KALOLENI",
    "office_location": "Adjacent To St.Johns Girls Sec. School",
    "landmark": "ACK Church Kaloleni",
    "latitude": -3.62369,
    "longitude": 39.85334,
    "accuracy_meters": 500,
    "confidence_score": 78,
    "office_type": "CONSTITUENCY_OFFICE",
    "verified": true
  },
  {
    "county": "NYANDARUA",
    "constituency_name": "KIPIPIRI",
    "office_location": "Kipipiri Subcounty Headquaters",
    "landmark": "Kipipiri Subcounty HQ",
    "latitude": -0.53333,
    "longitude": 36.43333,
    "accuracy_meters": 500,
    "confidence_score": null,
    "office_type": "CONSTITUENCY_OFFICE",
    "verified": true
  },
  {
    "county": "MANDERA",
    "constituency_name": "MANDERA EAST",
    "office_location": "Off Suftu Road Behind Blue Light Petrol Station",
    "landmark": "Blue Light Petrol Station",
    "latitude": 3.9333,
    "longitude": 41.8564,
    "accuracy_meters": 500,
    "confidence_score": 78,
    "office_type": "CONSTITUENCY_OFFICE",
    "verified": true
  },
  {
    "county": "NAKURU",
    "constituency_name": "NAKURU TOWN EAST",
    "office_location": "Catholic Diocese Nakuru (Cdn) Compound -",
    "landmark": "Mercy Mission Hospital",
    "latitude": -0.3031,
    "longitude": 36.08,
    "accuracy_meters": 500,
    "confidence_score": 78,
    "office_type": "CONSTITUENCY_OFFICE",
    "verified": true
  },
  {
    "county": "BUNGOMA",
    "constituency_name": "WEBUTE WEST",
    "office_location": "Matisi Market",
    "landmark": "Webuye West CDF Offices",
    "latitude": 0.59494405,
    "longitude": 34.712200353002,
    "accuracy_meters": 500,
    "confidence_score": null,
    "office_type": "CONSTITUENCY_OFFICE",
    "verified": true
  },
  {
    "county": "TAITA TAVETA",
    "constituency_name": "TAVETA",
    "office_location": "Next to Probation office Taveta",
    "landmark": "Probation Office Taveta",
    "latitude": -3.4,
    "longitude": 37.6833,
    "accuracy_meters": 500,
    "confidence_score": 78,
    "office_type": "CONSTITUENCY_OFFICE",
    "verified": true
  },
  {
    "county": "WEST POKOT",
    "constituency_name": "KACHELIBA",
    "office_location": "Holy Cross Catholic Church Kacheliba Catholic Church",
    "landmark": "Kacheliba Catholic Church",
    "latitude": 1.4805,
    "longitude": 35.01207,
    "accuracy_meters": 500,
    "confidence_score": 55,
    "office_type": "CONSTITUENCY_OFFICE",
    "verified": true
  },
  {
    "county": "KIRINYAGA",
    "constituency_name": "MWEA",
    "office_location": "County Council Offices Wanguru",
    "landmark": "Wang'uru Police Station",
    "latitude": -3.3146,
    "longitude": 38.48816,
    "accuracy_meters": 500,
    "confidence_score": 37,
    "office_type": "CONSTITUENCY_OFFICE",
    "verified": true
  },
  {
    "county": "KIRINYAGA",
    "constituency_name": "NDIA",
    "office_location": "Baricho Town",
    "landmark": "ACK St Philips, Baricho",
    "latitude": -0.555569625,
    "longitude": 37.2404696,
    "accuracy_meters": 500,
    "confidence_score": 75,
    "office_type": "CONSTITUENCY_OFFICE",
    "verified": true
  },
  {
    "county": "NAIROBI",
    "constituency_name": "WESTLANDS",
    "office_location": "DC Compound",
    "landmark": "Safaricom Centre",
    "latitude": -1.2594634,
    "longitude": 36.7855544,
    "accuracy_meters": 500,
    "confidence_score": 48,
    "office_type": "CONSTITUENCY_OFFICE",
    "verified": true
  },
  {
    "county": "UASIN GISHU",
    "constituency_name": "KAPSERET",
    "office_location": "Inside R.C.E.A Ushirika Church Compound, Op-",
    "landmark": "RCEA Ushirika Church",
    "latitude": -1.365229,
    "longitude": 36.662589,
    "accuracy_meters": 500,
    "confidence_score": null,
    "office_type": "CONSTITUENCY_OFFICE",
    "verified": true
  },
  {
    "county": "NANDI",
    "constituency_name": "CHESUMEI",
    "office_location": "Cheptarit Catholic Church- Mosoriot",
    "landmark": "Cheptarit Catholic Church",
    "latitude": -3.347561,
    "longitude": 39.932924,
    "accuracy_meters": 500,
    "confidence_score": null,
    "office_type": "CONSTITUENCY_OFFICE",
    "verified": true
  },
  {
    "county": "KITUI",
    "constituency_name": "KITUI WEST",
    "office_location": "Matinyani",
    "landmark": "Matinyani DCC Offices",
    "latitude": -1.2167,
    "longitude": 37.8833,
    "accuracy_meters": 500,
    "confidence_score": 73,
    "office_type": "CONSTITUENCY_OFFICE",
    "verified": true
  },
  {
    "county": "NANDI",
    "constituency_name": "ALDAI",
    "office_location": "St. Pauls Catholic Church, Within Kobujoi Town",
    "landmark": "St. Paul's Catholic Church",
    "latitude": 0.0619069,
    "longitude": 34.9780584,
    "accuracy_meters": 500,
    "confidence_score": 35,
    "office_type": "CONSTITUENCY_OFFICE",
    "verified": true
  },
  {
    "county": "BARINGO",
    "constituency_name": "BARINGO NORTH",
    "office_location": "Behind Posta Building",
    "landmark": "Posta Building",
    "latitude": 0.7833,
    "longitude": 35.75,
    "accuracy_meters": 500,
    "confidence_score": 36,
    "office_type": "CONSTITUENCY_OFFICE",
    "verified": true
  },
  {
    "county": "GARISSA",
    "constituency_name": "BALAMBALA",
    "office_location": "Balambala Town Next To Dc’s Office",
    "landmark": "DC's Office",
    "latitude": -0.4530054,
    "longitude": 39.6462447,
    "accuracy_meters": 500,
    "confidence_score": 36,
    "office_type": "CONSTITUENCY_OFFICE",
    "verified": true
  },
  {
    "county": "MANDERA",
    "constituency_name": "MANDERA SOUTH",
    "office_location": "Elwak CBD Along Elwak-Wajir Road",
    "landmark": "Dido Petrol Station",
    "latitude": 3.2667,
    "longitude": 41.0833,
    "accuracy_meters": 500,
    "confidence_score": 32,
    "office_type": "CONSTITUENCY_OFFICE",
    "verified": true
  },
  {
    "county": "BOMET",
    "constituency_name": "CHEPALUNGU",
    "office_location": "Sigor AGC Church",
    "landmark": "Junction to Sigor Township",
    "latitude": -0.8762692,
    "longitude": 35.1818049,
    "accuracy_meters": 500,
    "confidence_score": 82,
    "office_type": "CONSTITUENCY_OFFICE",
    "verified": true
  },